agency_cd,site_id,station_nm,site_tp_cd,lat,lon,coord_acy_cd,datum,elev_m,alt_acy_va,alt_datum_cd,huc8,interval,parm_cd,stat_cd,ts_id,date_begin,date_end,count_nu,total_yrs,total_post1980,comid,geometry
USGS,09423350,CARUTHERS C NR IVANPAH CA,ST,35.24498915,-115.2988759,F,NAD83, 5640, 20,NGVD29,15030102,dv,00060,00003,7194,1963-10-01,2020-11-17,20656,57,40,10017314,"c(-115.2988759, 35.24498915)"
USGS,09424150,"COLORADO RIVER AQUEDUCT NEAR PARKER DAM, AZ-CA",ST,34.31612564,-114.1571702,T,NAD83, 452,4.3,NAVD88,15030101,dv,00060,00003,217314,1981-10-01,2020-10-31,14276,39,40,21439475,"c(-114.1571702, 34.31612564)"
USGS,09427520,"COLORADO RIVER BELOW PARKER DAM, AZ-CA",ST,34.29557035,-114.140225,T,NAD83, 300.54, 20,NGVD29,15030104,dv,00060,00003,5403,1934-11-16,2020-11-17,31372,86,40,9998136,"c(-114.140225, 34.29557035)"
USGS,09429010,"COLORADO RIVER AT PALO VERDE DAM, CA-AZ",ST,33.7319659,-114.5118999,T,NAD83,NA,NA,NA,15030104,dv,00060,00003,5416,1969-04-01,1991-07-09,7776,22,11,10010638,"c(-114.5118999, 33.7319659)"
USGS,09429100,"COLORADO RIVER BELOW PALO VERDE DAM, AZ-CA",ST,33.71946626,-114.4980105,T,NAD83, 260.,4.3,NAVD88,15030104,dv,00060,00003,5420,1956-03-24,2020-11-17,16514,64,40,10010646,"c(-114.4980105, 33.71946626)"
USGS,09429160,"PVID D-10-11-2 SPILL NR BLYTHE, CA",ST,33.53502644,-114.5605103,T,NAD83,NA,NA,NA,15030104,dv,00060,00003,5423,1979-10-01,2020-10-31,14642,41,40,945030171,"c(-114.5605103, 33.53502644)"
USGS,09429170,"PVID D-10-11-5 SPILL NR BLYTHE, CA",ST,33.50919375,-114.5774549,T,NAD83,NA,NA,NA,15030104,dv,00060,00003,5424,1979-10-01,2020-10-31,14642,41,40,10010658,"c(-114.5774549, 33.50919375)"
USGS,09429180,"PVID D23 SPILL NEAR BLYTHE, CA",ST,33.4916942,-114.6035666,T,NAD83, 230, 20,NAVD88,15030104,dv,00060,00003,5425,1968-01-01,2020-11-17,18950,52,40,10003808,"c(-114.6035666, 33.4916942)"
USGS,09429190,"P.V.I.D. D-23-1 NEAR BLYTHE, CA",ST,33.43391809,-114.6294005,T,NAD83,NA,NA,NA,15030104,dv,00060,00003,5426,1979-10-01,2020-10-31,14642,41,40,10003830,"c(-114.6294005, 33.43391809)"
USGS,09429210,"P.V.I.D. C-28 UPPER SPILL NEAR BLYTHE, CA",ST,33.39697468,-114.72357,T,NAD83,NA,NA,NA,15030104,dv,00060,00003,5428,1979-10-01,2017-05-31,13393,38,37,10010624,"c(-114.72357, 33.39697468)"
USGS,09429230,"PVID C28 LOWER SPILL NEAR BLYTHE, CA.",ST,33.3511427,-114.7141253,T,NAD83,NA,NA,NA,15030104,dv,00060,00003,5431,1967-08-01,2020-10-31,19086,53,40,10002408,"c(-114.7141253, 33.3511427)"
USGS,09429490,"COLORADO RIVER ABOVE IMPERIAL DAM, AZ-CA",ST,32.8849361,-114.468111,5,NAD83,NA,NA,NA,15030104,dv,00060,00003,213326,1976-10-01,2020-11-17,16119,44,40,10005008,"c(-114.468111, 32.8849361)"
USGS,09429500,"COLORADO RIVER BELOW IMPERIAL DAM, AZ-CA",ST,32.86758333,-114.472111,T,NAD83, 130.,  1,NGVD29,15030107,dv,00060,00003,213060,1960-10-01,2018-11-30,21245,58,38,21413705,"c(-114.472111, 32.86758333)"
USGS,09429600,"COLORADO RIVER BELOW LAGUNA DAM, AZ-CA",ST,32.8122666,-114.5149494,T,NAD83, 120.81, 20,NGVD29,15030107,dv,00060,00003,5438,1971-12-16,2020-11-17,17870,49,40,21412675,"c(-114.5149494, 32.8122666)"
USGS,09521100,"COLORADO R BLW YUMA MAIN CANAL WW AT YUMA, AZ",ST,32.73171354,-114.6327306,T,NAD83, 101.99, 20,NGVD29,15030107,dv,00060,00003,5814,1963-10-01,2020-11-17,20868,57,40,21412723,"c(-114.6327306, 32.73171354)"
USGS,09527000,"PILOT KNOB POWERPLANT AND WASTEWAY NR P.K., CA",ST,32.737547,-114.7163443,T,NAD83, 150., 20,NGVD29,15030107,dv,00060,00003,5858,1939-04-26,2020-09-30,28648,81,40,21413711,"c(-114.7163443, 32.737547)"
USGS,09527594,"COACHELLA CANAL NEAR NILAND, CA",ST,33.2562222,-115.4511667,5,NAD83, 91., 4.,NAVD88,18100204,dv,00060,00003,5861,2009-10-17,2020-11-17,4050,11,40,22598583,"c(-115.4511667, 33.2562222)"
USGS,09527597,"COACHELLA CANAL NEAR DESERT BEACH, CA",ST,33.53808109,-115.9186083,S,NAD83, 70,  5,NGVD29,18100204,dv,00060,00003,5862,2009-10-24,2020-11-17,4043,11,40,22599677,"c(-115.9186083, 33.53808109)"
USGS,09529600,"RESERVATION DRAIN NO. 7 NR BARD, CA",ST,32.81559999,-114.5477283,T,NAD83,NA,NA,NA,15030107,dv,00060,00003,5891,1979-10-01,2017-09-30,13394,38,37,21411847,"c(-114.5477283, 32.81559999)"
USGS,09529700,"RESERVATION DRAIN NO. 6 NR. BARD, CA",ST,32.80421147,-114.5763403,T,NAD83,NA,NA,NA,15030107,dv,00060,00003,5892,1979-10-01,2017-09-30,13394,38,37,21411963,"c(-114.5763403, 32.80421147)"
USGS,09529800,"RESERVATION DRAIN NO. 2 NR BARD, CA",ST,32.79643395,-114.5985632,T,NAD83,NA,NA,NA,15030107,dv,00060,00003,5893,1979-10-01,2017-09-30,13394,38,37,21412601,"c(-114.5985632, 32.79643395)"
USGS,09529900,"RESERVATION DRAIN NO. 3 NR BARD, CA",ST,32.7747679,-114.6335642,T,NAD83,NA,NA,NA,15030107,dv,00060,00003,5894,1979-10-01,2017-09-30,13394,38,37,21412059,"c(-114.6335642, 32.7747679)"
USGS,09530000,"RESERVATION MAIN DRAIN NO. 4 NEAR YUMA, AZ",ST,32.73726888,-114.621897,T,NAD83, 127.,2.5,NGVD29,15030107,dv,00060,00003,5895,1966-10-01,2020-11-17,19407,54,40,21412135,"c(-114.621897, 32.73726888)"
USGS,09530400,"RESERVATION DRAIN NO. 11 NR WINTERHAVEN, CA",ST,32.7564352,-114.6860657,T,NAD83,NA,NA,NA,15030107,dv,00060,00003,5899,1979-10-01,2017-09-30,13394,38,37,21412723,"c(-114.6860657, 32.7564352)"
USGS,09530500,"DRAIN 8-B NEAR WINTERHAVEN, CA",ST,32.74615776,-114.6943992,T,NAD83, 118.,2.5,NGVD29,15030107,dv,00060,00003,5900,1979-10-01,2020-11-17,14659,41,40,945030254,"c(-114.6943992, 32.74615776)"
USGS,10251300,"AMARGOSA RV AT TECOPA, CA",ST,35.84944444,-116.2308333,D,NAD83, 1292.76,.33,NAVD88,18090202,dv,00060,00003,102473,1961-10-01,2020-11-17,11576,59,40,20247268,"c(-116.2308333, 35.84944444)"
USGS,10251330,"AMARGOSA RV ABV CHINA RANCH WASH NR TECOPA, CA",ST,35.79052778,-116.2076389,1,NAD83, 1042.49,.33,NAVD88,18090202,dv,00060,00003,102474,2006-06-13,2020-11-17,5272,14,40,20247386,"c(-116.2076389, 35.79052778)"
USGS,10254050,SALT C NR MECCA,ST,33.44697395,-115.8433289,F,NAD83,NA,NA,NA,18100204,dv,00060,00003,7210,1961-02-01,2020-11-17,21364,59,40,22599679,"c(-115.8433289, 33.44697395)"
USGS,10254670,ALAMO R AT DROP 3 NR CALIPATRIA CA,ST,33.10444444,-115.5441667,F,NAD83, -190, 20,NGVD29,18100204,dv,00060,00003,7213,1979-07-01,2003-09-29,8848,24,23,22599625,"c(-115.5441667, 33.10444444)"
USGS,10254730,ALAMO R NR NILAND CA,ST,33.19892768,-115.5969343,F,NAD83,NA,NA,NA,18100204,dv,00060,00003,7216,1960-10-01,2020-11-17,21963,60,40,22598685,"c(-115.5969343, 33.19892768)"
USGS,10254970,NEW R AT INTERNATIONAL BOUNDARY AT CALEXICO CA,ST,32.6658925,-115.5030501,F,NAD83, -30,2.5,NGVD29,18100204,dv,00060,00003,7219,1979-10-01,2020-11-17,15024,41,40,22603541,"c(-115.5030501, 32.6658925)"
USGS,10255550,NEW R NR WESTMORLAND CA,ST,33.10476565,-115.6644382,F,NAD83, -217,1.6,NAVD88,18100204,dv,00060,00003,7223,1943-01-01,2020-11-17,28431,77,40,22599619,"c(-115.6644382, 33.10476565)"
USGS,10255805,COYOTE C BL BOX CANYON NR BORREGO SPRINGS CA,ST,33.36503449,-116.41668,F,NAD83, 1100, 20,NGVD29,18100203,dv,00060,00003,7226,1983-10-01,1993-08-26,3331,10,13,22595335,"c(-116.41668, 33.36503449)"
USGS,10255885,SAN FELIPE C NR WESTMORLAND CA,ST,33.1239345,-115.8530559,F,NAD83, -180, 10,NGVD29,18100203,dv,00060,00003,7230,1960-12-01,1991-09-29,11260,31,11,22598811,"c(-115.8530559, 33.1239345)"
USGS,10256500,SNOW C NR WHITE WATER CA,ST,33.8705722,-116.681127,F,NAD83, 2000, 40,NGVD29,18100201,dv,00060,00003,7242,1921-07-21,2020-11-17,25170,99,40,22593463,"c(-116.681127, 33.8705722)"
USGS,10256501,SNOW C AND DIV COMBINED CA,ST,33.8705722,-116.681127,F,NAD83,NA,NA,NA,18100201,dv,00060,00003,222409,1959-10-01,2020-10-31,22312,61,40,22593463,"c(-116.681127, 33.8705722)"
USGS,10256550,SNOW C DIV NR WHITE WATER CA,ST,33.8705722,-116.681127,F,NAD83,NA,NA,NA,18100201,dv,00060,00003,224997,1978-10-01,2020-10-31,14641,42,40,22593463,"c(-116.681127, 33.8705722)"
USGS,10257499,FALLS C DIV NR WHITE WATER CA,ST,33.86946114,-116.6716824,S,NAD83, 1940, 40,NGVD29,18100201,dv,00060,00003,224913,1994-10-01,2020-10-31,9528,26,40,22591931,"c(-116.6716824, 33.86946114)"
USGS,10257501,COMBINED FLOW FALLS C NR WHITE WATER + DIV CA,ST,33.86946114,-116.6716824,F,NAD83, 1940, 40,NGVD29,18100201,dv,00060,00003,222410,1994-10-01,2020-10-31,9521,26,40,22591931,"c(-116.6716824, 33.86946114)"
USGS,10257548,WHITEWATER R A WINDY POINT MAIN CHANNEL CA,ST,33.8989045,-116.6211256,S,NAD83, 1040, 10,NGVD29,18100201,dv,00060,00003,7248,1998-10-01,2020-11-17,8037,22,40,22591891,"c(-116.6211256, 33.8989045)"
USGS,10257549,WHITEWATER R A WINDY POINT OVERFLOW CHANNEL CA,ST,33.8989045,-116.6211256,S,NAD83, 1040, 10,NGVD29,18100201,dv,00060,00003,7249,1998-10-01,2020-11-17,8082,22,40,22591891,"c(-116.6211256, 33.8989045)"
USGS,10257550,WHITEWATER R A WINDY PT NR WHITE WATER CA,ST,33.8989045,-116.6211256,F,NAD83, 1040, 10,NGVD29,18100201,dv,00060,00003,224906,1984-10-01,2020-11-17,12784,36,40,22591891,"c(-116.6211256, 33.8989045)"
USGS,10257720,CHINO CYN C BL TRAMWAY NR PALM SPRINGS CA,ST,33.8441843,-116.6052929,F,NAD83, 2100, 20,NGVD29,18100201,dv,00060,00003,7253,1986-10-01,2020-11-17,12467,34,40,22591957,"c(-116.6052929, 33.8441843)"
USGS,10259050,PALM CYN WASH NR CATHEDRAL CITY CA,ST,33.79724196,-116.481958,F,NAD83, 330, 10,NGVD29,18100201,dv,00060,00003,7260,1987-10-01,2020-11-17,12087,33,40,948100388,"c(-116.481958, 33.79724196)"
USGS,10259100,WHITEWATER R A RANCHO MIRAGE CA,ST,33.749466,-116.4227903,F,NAD83,NA,NA,NA,18100201,dv,00060,00003,7261,1989-03-30,2020-11-17,11556,31,40,22593529,"c(-116.4227903, 33.749466)"
USGS,10259300,WHITEWATER R A INDIO CA,ST,33.7372434,-116.236118,F,NAD83, 0,  5,NGVD29,18100201,dv,00060,00003,7263,1966-03-01,2020-11-17,19982,54,40,22593695,"c(-116.236118, 33.7372434)"
USGS,10259540,WHITEWATER R NR MECCA,ST,33.52474915,-116.0775023,F,NAD83,NA,NA,NA,18100201,dv,00060,00003,7264,1960-10-01,2020-11-17,21902,60,40,22592737,"c(-116.0775023, 33.52474915)"
USGS,10260500,DEEP C NR HESPERIA CA,ST,34.34305858,-117.2264316,F,NAD83, 3030.00, 20,NGVD29,18090208,dv,00060,00003,7271,1904-10-01,2020-11-17,39859,116,40,22658309,"c(-117.2264316, 34.34305858)"
USGS,10260550,WF MOJAVE R AB SILVERWOOD LAKE NR HESPERIA CA,ST,34.28500486,-117.3719912,S,NAD83, 3550, 20,NGVD29,18090208,dv,00060,00003,213378,1995-10-01,2019-09-30,8036,24,39,22658543,"c(-117.3719912, 34.28500486)"
USGS,10260620,HOUSTON C AB LK GREGORY A CRESTLINE CA,ST,34.2425064,-117.280877,F,NAD83, 4540.00, 20,NGVD29,18090208,dv,00060,00003,7282,1979-03-08,1993-12-05,5342,14,13,22660237,"c(-117.280877, 34.2425064)"
USGS,10260630,ABONDIGAS C AB LK GREGORY A CRESTLINE CA,ST,34.23778436,-117.265043,F,NAD83, 4550.00, 20,NGVD29,18090208,dv,00060,00003,7283,1979-03-08,1993-09-30,5321,14,13,22660237,"c(-117.265043, 34.23778436)"
USGS,10260650,HOUSTON C BL LK GREGORY A CRESTLINE CA,ST,34.2483395,-117.2689321,F,NAD83, 4440.00, 20,NGVD29,18090208,dv,00060,00003,7285,1979-03-08,1993-09-29,5320,14,13,22660087,"c(-117.2689321, 34.2483395)"
USGS,10260700,EF OF WF MOJAVE R AB SILVERWOOD LK NR HESPERIA CA,ST,34.2702832,-117.292822,S,NAD83, 3590, 20,NGVD29,18090208,dv,00060,00003,213379,1995-10-01,2019-09-30,8401,24,39,22658611,"c(-117.292822, 34.2702832)"
USGS,10260776,EB CALIFORNIA AQUEDUCT A ALAMO PP NR GORMAN CA,ST,34.81553377,-118.6850897,S,NAD83, 2932.5,.10,NGVD29,18090206,dv,00060,00003,7287,1995-10-01,2015-09-30,6575,20,35,948090874,"c(-118.6850897, 34.81553377)"
USGS,10260780,EB CA AQUEDUCT A MOJAVE SIPHON PP NR HESPERIA CA,ST,34.30694847,-117.324212,S,NAD83, 3182, 20,NGVD29,18090208,dv,00060,00003,7289,1995-10-01,2014-09-29,6573,19,34,948090847,"c(-117.324212, 34.30694847)"
USGS,10260820,WF MOJAVE R BL SILVERWOOD LK CA,ST,34.3041708,-117.3192118,S,NAD83, 3180, 20,NGVD29,18090208,dv,00060,00003,213381,1980-10-01,2019-09-30,9496,39,39,22660067,"c(-117.3192118, 34.3041708)"
USGS,10260822,LAS FLORES REL FROM EB CA AQUEDUCT NR HESPERIA CA,ST,34.3091706,-117.3167118,S,NAD83, 3160, 20,NGVD29,18090208,dv,00060,00003,213382,1995-10-01,2019-09-30,8401,24,39,22660067,"c(-117.3167118, 34.3091706)"
USGS,10260950,WF MOJAVE R AB MOJAVE R FORKS RES NR HESPERIA CA,ST,34.33889196,-117.2578213,S,NAD83, 3050, 20,NGVD29,18090208,dv,00060,00003,7297,1974-10-01,2020-11-17,16850,46,40,22660257,"c(-117.2578213, 34.33889196)"
USGS,10261100,MOJAVE R BL FORKS RES NR HESPERIA CA,ST,34.34583624,-117.2380986,S,NAD83, 2956, 20,NGVD29,18090208,dv,00060,00003,7309,1971-10-01,1997-09-29,7303,26,17,22660039,"c(-117.2380986, 34.34583624)"
USGS,10261500,MOJAVE R A LO NARROWS NR VICTORVILLE CA,ST,34.57304916,-117.3206018,F,NAD83, 2643.01, 10,NGVD29,18090208,dv,00060,00003,7314,1899-03-01,2020-11-17,34867,121,40,948090919,"c(-117.3206018, 34.57304916)"
USGS,10262000,MOJAVE R NR HODGE CA,ST,34.83581727,-117.1917113,F,NAD83,NA,NA,NA,18090208,dv,00060,00003,7324,1930-10-01,1993-09-29,9130,63,13,948090834,"c(-117.1917113, 34.83581727)"
USGS,10262500,MOJAVE R A BARSTOW CA,ST,34.90692668,-117.022818,F,NAD83, 2090.00, 10,NGVD29,18090208,dv,00060,00003,7325,1930-10-01,2020-11-17,32921,90,40,22656105,"c(-117.022818, 34.90692668)"
USGS,10263000,MOJAVE R A AFTON CA,ST,35.03720565,-116.3841887,F,NAD83, 1398.15,.01,NGVD29,18090208,dv,00060,00003,7328,1929-10-01,2020-11-17,25248,91,40,948091323,"c(-116.3841887, 35.03720565)"
USGS,10264675,ROGERS LK TRIB A EDWARDS AFB CA,ST,34.9683085,-117.8922893,F,NAD83,NA,NA,NA,18090206,dv,00060,00003,7367,1988-10-01,2001-09-29,4672,13,21,-258130,"c(-117.8922893, 34.9683085)"
USGS,10265150,HOT C A FLUME NR MAMMOTH LAKES CA,ST,37.66882166,-118.8176312,F,NAD83, 6950.00,  5,NGVD29,18090102,dv,00060,00003,7376,1982-11-17,2020-10-31,13844,38,40,20273931,"c(-118.8176312, 37.66882166)"
USGS,10268225,MCGEE C DIV NR BISHOP CA,ST,37.27548809,-118.6201142,S,NAD83, 8630, 20,NGVD29,18090102,dv,00060,00003,213262,1986-10-01,2019-09-30,7139,33,39,20276881,"c(-118.6201142, 37.27548809)"
USGS,10270680,GREEN C COND OUTLET NR BISHOP CA,ST,37.17048855,-118.5648314,S,NAD83, 9800, 20,NGVD29,18090102,dv,00060,00003,213288,1987-10-01,2016-09-30,6200,29,36,20278001,"c(-118.5648314, 37.17048855)"
USGS,10270800,SF BISHOP C BL S LK NR BISHOP CA,ST,37.17715504,-118.563165,F,NAD83, 9580, 20,NGVD29,18090102,dv,00060,00003,213294,1985-10-01,2019-09-30,12418,34,39,20277159,"c(-118.563165, 37.17715504)"
USGS,10270830,SF BISHOP C BL SF DIV DAM NR BISHOP CA,ST,37.2407648,-118.56539,S,NAD83, 7130, 20,NGVD29,18090102,dv,00060,00003,213313,1994-08-16,2019-09-30,8791,25,39,20277797,"c(-118.56539, 37.2407648)"
USGS,10270872,MF BISHOP C BL LK SABRINA NR BISHOP CA,ST,37.213822,-118.6103894,S,NAD83, 9060, 20,NGVD29,18090102,dv,00060,00003,213303,1985-10-01,2019-09-30,12418,34,39,20277013,"c(-118.6103894, 37.213822)"
USGS,10270877,MF BISHOP C BL INTAKE NO 2 RES NR BISHOP CA,ST,37.2479873,-118.5823349,S,NAD83, 8080, 20,NGVD29,18090102,dv,00060,00003,240782,1988-10-01,2019-09-30,10234,31,39,20277941,"c(-118.5823349, 37.2479873)"
USGS,10270885,BISHOP C BL INTAKE NO 3 DIV DAM NR BISHOP CA,ST,37.2740981,-118.5723357,S,NAD83, 7130, 20,NGVD29,18090102,dv,00060,00003,213309,1994-08-18,2019-09-30,7779,25,39,20277779,"c(-118.5723357, 37.2740981)"
USGS,10270900,BIRCH-MCGEE C DIV TO BISHOP C PP NR BISHOP CA,ST,37.2738205,-118.5801136,F,NAD83, 7950, 20,NGVD29,18090102,dv,00060,00003,213311,1989-10-01,2019-09-30,10252,30,39,20277787,"c(-118.5801136, 37.2738205)"
USGS,10270940,BISHOP C BL INTAKE NO 4 DIV DAM NR BISHOP CA,ST,37.3022222,-118.531111,S,NAD83, 6340, 20,NGVD29,18090102,dv,00060,00003,213312,1994-08-16,2019-09-30,7454,25,39,20277765,"c(-118.531111, 37.3022222)"
USGS,10270960,COYOTE C NR BISHOP CA,ST,37.31187456,-118.5109472,S,NAD83, 5560, 20,NGVD29,18090102,dv,00060,00003,7405,1986-10-01,1996-09-29,3652,10,16,20277765,"c(-118.5109472, 37.31187456)"
USGS,10270970,BISHOP C BL INTAKE NO 5 DIV DAM NR BISHOP CA,ST,37.3240966,-118.500114,S,NAD83, 5280, 20,NGVD29,18090102,dv,00060,00003,216934,1994-09-30,2019-09-30,7098,25,39,20277761,"c(-118.500114, 37.3240966)"
USGS,10271060,BISHOP C PP NO 6 CONDUIT NR BISHOP CA,ST,37.3379854,-118.4776134,F,NAD83,NA,NA,NA,18090102,dv,00060,00003,213315,1989-10-01,2019-09-30,10957,30,39,20277761,"c(-118.4776134, 37.3379854)"
USGS,10271200,BISHOP C AB PP NO 6 NR BISHOP CA,ST,37.34992977,-118.462613,F,NAD83,NA,NA,NA,18090102,dv,00060,00003,213317,1988-10-01,2019-09-30,11322,31,39,20277761,"c(-118.462613, 37.34992977)"
USGS,10271210,BISHOP C BL PP NO 6 NR BISHOP CA (ACTUAL) CA,ST,37.34965199,-118.4623352,F,NAD83,NA,NA,NA,18090102,dv,00060,00003,7410,1969-10-01,1990-09-29,7669,21,10,20277761,"c(-118.4623352, 37.34965199)"
USGS,10287069,MILL C BL LUNDY LK NR LEE VINING CA,ST,38.0329787,-119.2165424,F,NAD83, 7760, 20,NGVD29,18090101,dv,00060,00003,213352,1988-10-01,2019-09-30,11189,31,39,20286400,"c(-119.2165424, 38.0329787)"
USGS,10287070,MILL C BL LUNDY LK NR MONO LK(ACTUAL) CA,ST,38.0327009,-119.215709,F,NAD83,NA,NA,NA,18090101,dv,00060,00003,7439,1969-10-01,1990-09-29,7669,21,10,20286400,"c(-119.215709, 38.0327009)"
USGS,10287145,UP CONWAY D NR LEE VINING CA,ST,38.04214527,-119.1726516,F,NAD83, 7020, 20,NGVD29,18090101,dv,00060,00003,213357,1986-10-01,2019-09-30,12053,33,39,20286396,"c(-119.1726516, 38.04214527)"
USGS,10287195,LUNDY PP TAILRACE NR LEE VINING CA,ST,38.0427008,-119.1726516,F,NAD83, 7020, 20,NGVD29,18090101,dv,00060,00003,213362,1986-10-01,2019-09-30,12053,33,39,20286396,"c(-119.1726516, 38.0427008)"
USGS,10287262,RUSH C CONTROLLED REL BL WAUGH LK NR JUNE LAKE CA,ST,37.7510421,-119.1815348,S,NAD83, 9375, 10,NGVD29,18090101,dv,00060,00003,213365,1999-08-11,2019-09-30,1535,20,39,20287674,"c(-119.1815348, 37.7510421)"
USGS,10287281,RUSH C CONTROLLED REL BL GEM LAKE NR JUNE LAKE CA,ST,37.75132009,-119.1415343,S,NAD83, 9000, 20,NGVD29,18090101,dv,00060,00003,213376,1999-10-19,2019-09-30,6976,20,39,20287684,"c(-119.1415343, 37.75132009)"
USGS,10287289,RUSH C AT FLUME BL AGNEW LAKE NR JUNE LAKE CA,ST,37.7590977,-119.130701,F,NAD83, 8440, 20,NGVD29,18090101,dv,00060,00003,213392,1988-10-01,2019-09-30,10993,31,39,20287432,"c(-119.130701, 37.7590977)"
USGS,10287290,RUSH C BL AGNEW LK NR JUNE LAKE CA (ACTUAL) CA,ST,37.7588199,-119.130701,F,NAD83, 8480, 20,NGVD29,18090101,dv,00060,00003,7449,1969-10-01,1990-09-29,7669,21,10,20287432,"c(-119.130701, 37.7588199)"
USGS,10287300,RUSH C PP TAILRACE NR JUNE LAKE CA,ST,37.76631976,-119.1223677,F,NAD83, 7230, 20,NGVD29,18090101,dv,00060,00003,213393,1986-10-01,2019-09-30,12053,33,39,20287600,"c(-119.1223677, 37.76631976)"
USGS,10287655,LEE VINING C BL SADDLEBAG LK NR LEE VINING CA,ST,37.9643687,-119.2732103,S,NAD83, 10050, 20,NGVD29,18090101,dv,00060,00003,213394,1997-10-01,2019-09-30,8035,22,39,20287270,"c(-119.2732103, 37.9643687)"
USGS,10287720,GLACIER C BL TIOGA LK NR LEE VINING CA,ST,37.92798117,-119.2512636,F,NAD83, 9620, 20,NGVD29,18090101,dv,00060,00003,213395,1997-10-01,2019-09-30,5615,22,39,20287628,"c(-119.2512636, 37.92798117)"
USGS,10287762,POOLE PP CONDUIT INTAKE NR LEE VINING CA,ST,37.9357588,-119.2307076,F,NAD83, 9450, 20,NGVD29,18090101,dv,00060,00003,213396,1989-10-01,2019-09-30,10957,30,39,20287584,"c(-119.2307076, 37.9357588)"
USGS,10287770,LEE VINING C BL RHINEDOLLAR DAM NR LEE VINING CA,ST,37.93603659,-119.2309854,F,NAD83, 9450, 20,NGVD29,18090101,dv,00060,00003,213397,1987-10-01,2019-09-30,11688,32,39,20287584,"c(-119.2309854, 37.93603659)"
USGS,10289000,"VIRGINIA CK NR BRIDGEPORT, CA",ST,38.19186474,-119.2101533,S,NAD83, 6700.,20.,NGVD29,16050301,dv,00060,00003,102483,1953-10-01,2009-09-30,9836,56,29,8915923,"c(-119.2101533, 38.19186474)"
USGS,10289500,"GREEN CK NR BRIDGEPORT, CA",ST,38.17380969,-119.2337656,S,NAD83, 6880.,20.,NGVD29,16050301,dv,00060,00003,102484,1953-10-01,2015-10-12,12044,62,35,8915933,"c(-119.2337656, 38.17380969)"
USGS,10290500,"ROBINSON CK AT TWIN LKS OUTLET NR BRIDGEPORT, CA",ST,38.17214225,-119.3246032,U,NAD83, 7050.00,.01,NGVD29,16050301,dv,00060,00003,102489,1953-10-01,2015-10-13,15872,62,35,8915935,"c(-119.3246032, 38.17214225)"
USGS,10292000,"SWAUGER CK NR BRIDGEPORT, CA",ST,38.28269628,-119.29988,S,NAD83, 6620., 20,NGVD29,16050301,dv,00060,00003,102491,1953-10-01,2006-09-30,8503,53,26,8915871,"c(-119.29988, 38.28269628)"
USGS,10293000,"E WALKER RV NR BRIDGEPORT, CA",ST,38.3276958,-119.2148759,F,NAD83, 6400.00, 20,NGVD29,16050301,dv,00060,00003,102494,1921-10-01,2020-11-17,35911,99,40,8915857,"c(-119.2148759, 38.3276958)"
USGS,10296000,"W WALKER RV BLW L WALKER RV NR COLEVILLE, CA",ST,38.3796366,-119.4501649,S,NAD83, 6591.39,1.0,NGVD29,16050302,dv,00060,00003,102502,1938-04-01,2020-11-17,30182,82,40,10744424,"c(-119.4501649, 38.3796366)"
USGS,10296500,"W WALKER RV NR COLEVILLE, CA",ST,38.51324495,-119.4498872,S,NAD83, 5520.00, 20,NGVD29,16050302,dv,00060,00003,102503,1902-10-01,2020-11-16,34098,118,40,946050152,"c(-119.4498872, 38.51324495)"
USGS,103087835,UNNAMED TRIB 1 TO LEVIATHAN C AT LEVIATHAN MINE CA,ST,38.7033333,-119.6591667,U,NAD83, 7090, 40,NGVD29,16050201,dv,00060,00003,7468,2010-03-25,2020-11-16,2767,10,40,8922761,"c(-119.6591667, 38.7033333)"
USGS,103087855,LEVIATHAN MINE PIT JUNCTION BOX NR MARKLEEVILLE CA,ST,38.7058333,-119.6566667,U,NAD83, 7110, 40,NGVD29,16050201,dv,00060,00003,7472,2009-12-12,2020-09-29,2916,11,40,8922761,"c(-119.6566667, 38.7058333)"
USGS,103087865,UNNAMED TRIB 2 TO LEVIATHAN C AT LEVIATHAN MINE CA,ST,38.70555556,-119.6622222,U,NAD83, 6950, 40,NGVD29,16050201,dv,00060,00003,7473,2010-03-20,2020-09-30,3015,10,40,8922761,"c(-119.6622222, 38.70555556)"
USGS,103087885,LEVIATHAN C CHANNEL UNDERDRAIN NR MARKLEEVILLE CA,ST,38.7093506,-119.6623949,S,NAD83, 6800, 40,NGVD29,16050201,dv,00060,00003,7474,1999-11-03,2012-10-08,4697,13,32,8922761,"c(-119.6623949, 38.7093506)"
USGS,103087889,4L C NR MARKLEEVILLE CA,ST,38.7108333,-119.6630556,S,NAD83, 6780, 40,NGVD29,16050201,dv,00060,00003,7477,2003-10-01,2020-08-26,6175,17,40,8922717,"c(-119.6630556, 38.7108333)"
USGS,10308789,LEVIATHAN C AB ASPEN C NR MARKLEEVILLE CA,ST,38.7168505,-119.6601726,S,NAD83, 6700, 40,NGVD29,16050201,dv,00060,00003,7478,1998-10-24,2020-11-17,8049,22,40,8922717,"c(-119.6601726, 38.7168505)"
USGS,103087891,ASPEN C ABV LEVIATHAN MINE NR MARKLEEVILLE CA,ST,38.7086111,-119.648611,S,NAD83, 7190, 40,NGVD29,16050201,dv,00060,00003,7479,2003-10-01,2020-09-30,6210,17,40,8922743,"c(-119.648611, 38.7086111)"
USGS,103087892,ASPEN C OVERBURDEN SEEP NR MARKLEEVILLE CA,ST,38.71240619,-119.6540613,S,NAD83, 7100, 40,NGVD29,16050201,dv,00060,00003,7480,1998-11-07,2012-10-07,4857,14,32,8922727,"c(-119.6540613, 38.71240619)"
USGS,10308792,LEVIATHAN C AB MOUNTAINEER C NR MARKLEEVILLE CA,ST,38.73573925,-119.6454497,S,NAD83, 6220, 40,NGVD29,16050201,dv,00060,00003,7481,1999-12-29,2020-11-17,7630,21,40,8922665,"c(-119.6454497, 38.73573925)"
USGS,10308794,BRYANT C BL MOUNTAINEER C NR MARKLEEVILLE CA,ST,38.73573925,-119.6454497,S,NAD83, 6300, 40,NGVD29,16050201,dv,00060,00003,7482,1998-11-07,2020-11-17,8046,22,40,8922665,"c(-119.6454497, 38.73573925)"
USGS,10310300,"FREDERICKSBURG CYN CK NR FREDERICKSBURG, CA",ST,38.82712805,-119.7998997,T,NAD83, 5520., 20,NGVD29,16050201,dv,00060,00003,102583,1988-12-01,2001-09-30,4687,13,21,8922335,"c(-119.7998997, 38.82712805)"
USGS,103366092,"UPPER TRUCKEE RV AT HWY 50 ABV MEYERS, CA",ST,38.8485185,-120.0271275,S,NAD83, 6310, 20,NGVD29,16050101,dv,00060,00003,102819,1990-06-01,2020-11-17,11088,30,40,8943677,"c(-120.0271275, 38.8485185)"
USGS,10336610,"UPPER TRUCKEE RV AT SOUTH LAKE TAHOE, CA",ST,38.9224078,-119.9915706,S,NAD83, 6229.04,.01,NGVD29,16050101,dv,00060,00003,102827,1971-10-01,2020-11-17,16511,49,40,8944439,"c(-119.9915706, 38.9224078)"
USGS,10336626,TAYLOR C NR CAMP RICHARDSON CA,ST,38.9215744,-120.0612952,F,NAD83,NA,NA,NA,16050101,dv,00060,00003,7492,1968-10-01,1992-12-14,8841,24,12,8943577,"c(-120.0612952, 38.9215744)"
USGS,10336674,WARD C BL CONFLUENCE NR TAHOE CITY CA,ST,39.1407401,-120.2121377,S,NAD83, 6600, 20,NGVD29,16050101,dv,00060,00003,7543,1991-10-01,2011-11-01,7337,20,31,8941685,"c(-120.2121377, 39.1407401)"
USGS,10336675,WARD C A STANFORD ROCK TRAIL XING NR TAHOE CITY CA,ST,39.1368513,-120.1810255,F,NAD83, 6450, 20,NGVD29,16050101,dv,00060,00003,7544,1991-10-01,2001-09-30,3653,10,21,8941685,"c(-120.1810255, 39.1368513)"
USGS,10336775,"TROUT CK AT PIONEER TRAIL NR SOUTH LAKE TAHOE, CA",ST,38.90339444,-119.9688917,H,NAD83, 6269.57,0.1,NAVD88,16050101,dv,00060,00003,102867,1990-06-01,2014-10-04,8892,24,34,8944479,"c(-119.9688917, 38.90339444)"
USGS,10336790,TROUT C A SOUTH LAKE TAHOE CA,ST,38.93213,-119.9787926,F,NAD83,NA,NA,NA,16050101,dv,00060,00003,7583,1971-10-01,1992-09-30,2556,21,12,8945207,"c(-119.9787926, 38.93213)"
USGS,10337500,TRUCKEE R A TAHOE CITY CA,ST,39.16629577,-120.1443586,F,NAD83, 6216.59,.05,NGVD29,16050102,dv,00060,00003,7588,1895-07-01,2020-11-17,41048,125,40,8934074,"c(-120.1443586, 39.16629577)"
USGS,10338000,TRUCKEE R NR TRUCKEE CA,ST,39.2962952,-120.2054752,F,NAD83, 5860.00, 20,NGVD29,16050102,dv,00060,00003,7600,1944-12-01,2020-11-16,17975,76,40,8933958,"c(-120.2054752, 39.2962952)"
USGS,10338500,DONNER C A DONNER LK NR TRUCKEE CA,ST,39.3235172,-120.2343654,F,NAD83, 5924.40,.01,NGVD29,16050102,dv,00060,00003,7606,1929-01-01,2020-11-16,32039,91,40,8933876,"c(-120.2343654, 39.3235172)"
USGS,10338700,DONNER C AT HWY 89 NR TRUCKEE CA,ST,39.32101739,-120.2079759,S,NAD83, 5870, 20,NGVD29,16050102,dv,00060,00003,7607,1993-03-24,2020-11-17,10101,27,40,8933890,"c(-120.2079759, 39.32101739)"
USGS,10341950,LITTLE TRUCKEE R BL DIV DAM NR SIERRAVILLE CA,ST,39.4915715,-120.2927043,S,NAD83, 6380, 20,NGVD29,16050102,dv,00060,00003,7633,1993-06-26,2016-10-31,3283,23,36,8933156,"c(-120.2927043, 39.4915715)"
USGS,10343000,INDEPENDENCE C NR TRUCKEE CA,ST,39.4565717,-120.2871477,F,NAD83, 6940.00, 20,NGVD29,16050102,dv,00060,00003,7640,1909-10-21,2020-11-17,19373,111,40,8933376,"c(-120.2871477, 39.4565717)"
USGS,10344400,LITTLE TRUCKEE R AB BOCA RES NR TRUCKEE CA,ST,39.43574106,-120.084366,F,NAD83, 5618.67, 20,NGVD29,16050102,dv,00060,00003,7658,1939-09-01,2020-11-17,29182,81,40,8933494,"c(-120.084366, 39.43574106)"
USGS,10344500,LITTLE TRUCKEE R BL BOCA DAM NR TRUCKEE CA,ST,39.38685177,-120.0954757,F,NAD83, 5500.00, 20,NGVD29,16050102,dv,00060,00003,7666,1911-01-01,2020-11-17,31640,109,40,8933684,"c(-120.0954757, 39.38685177)"
USGS,10344505,TRUCKEE R A BOCA BRIDGE NR TRUCKEE CA,ST,39.38518517,-120.0876977,S,NAD83, 5484, 20,NGVD29,16050102,dv,00060,00003,7668,2002-08-28,2020-11-17,6657,18,40,8933706,"c(-120.0876977, 39.38518517)"
USGS,10346000,TRUCKEE R A FARAD CA,ST,39.42796385,-120.0340873,S,NAD83, 5153.21,.01,NGVD29,16050102,dv,00060,00003,7685,1909-01-01,2020-11-17,40864,111,40,8933532,"c(-120.0340873, 39.42796385)"
USGS,10354000,LONG VALLEY C NR SCOTTS CA,ST,39.85546105,-120.0677023,F,NAD83, 4620.00, 20,NGVD29,18080003,dv,00060,00003,7695,1917-03-10,1994-09-29,2411,77,14,20298765,"c(-120.0677023, 39.85546105)"
USGS,10356500,SUSAN R A SUSANVILLE CA,ST,40.4137361,-120.6642556,5,NAD83, 4225.72,  5,NGVD29,18080003,dv,00060,00003,7699,1900-06-01,1994-10-12,19036,94,14,20296767,"c(-120.6642556, 40.4137361)"
USGS,10358500,WILLOW C NR SUSANVILLE CA,ST,40.4890637,-120.5371707,F,NAD83,NA,NA,NA,18080003,dv,00060,00003,7702,1950-10-01,1994-10-12,16083,44,14,20296737,"c(-120.5371707, 40.4890637)"
USGS,11012000,COTTONWOOD C AB TECATE C NR DULZURA CA,ST,32.5750606,-116.7539079,F,NAD83, 569.40,.01,NGVD29,18070305,dv,00060,00003,7713,1936-10-01,2007-09-30,25932,71,27,20326433,"c(-116.7539079, 32.5750606)"
USGS,11012500,CAMPO C NR CAMPO CA,ST,32.591172,-116.525572,F,NAD83, 2179.08, 20,NGVD29,18070305,dv,00060,00003,7715,1936-10-01,2020-11-17,30729,84,40,20326431,"c(-116.525572, 32.591172)"
USGS,11013000,TIJUANA R NR DULZURA CA,ST,32.5656161,-116.7750194,F,NAD83, 542.42,.01,NGVD29,18070305,dv,00060,00003,7716,1936-10-01,1990-09-30,19723,54,10,20326435,"c(-116.7750194, 32.5656161)"
USGS,11014000,JAMUL C NR JAMUL CA,ST,32.6375566,-116.8841893,F,NAD83, 511.64, 10,NGVD29,18070304,dv,00060,00003,7722,1940-04-10,2020-11-17,26857,80,40,20334508,"c(-116.8841893, 32.6375566)"
USGS,11015000,SWEETWATER R NR DESCANSO CA,ST,32.8347737,-116.6230747,F,NAD83, 3269.24, 20,NGVD29,18070304,dv,00060,00003,7726,1905-10-01,2020-11-17,31458,115,40,20334440,"c(-116.6230747, 32.8347737)"
USGS,11016200,SWEETWATER R A DEHESA CA,ST,32.77416667,-116.8502778,U,NAD83, 520, 20,NGVD29,18070304,dv,00060,00003,7729,2005-10-01,2020-11-17,5527,15,40,948070230,"c(-116.8502778, 32.77416667)"
USGS,11022200,LOS COCHES C NR LAKESIDE CA,ST,32.83616156,-116.9003035,F,NAD83, 560, 10,NGVD29,18070304,dv,00060,00003,7738,1983-10-01,2020-11-17,13563,37,40,20332986,"c(-116.9003035, 32.83616156)"
USGS,11022350,FORESTER C A EL CAJON CA,ST,32.82116107,-116.9764165,F,NAD83, 368, 10,NGVD29,18070304,dv,00060,00003,7739,1983-10-01,1993-09-29,3652,10,13,20333038,"c(-116.9764165, 32.82116107)"
USGS,11022480,SAN DIEGO R A MAST RD NR SANTEE CA,ST,32.84032675,-117.0258627,F,NAD83, 280, 10,NGVD29,18070304,dv,00060,00003,7740,1912-05-01,2020-11-17,38825,108,40,20331402,"c(-117.0258627, 32.84032675)"
USGS,11023000,SAN DIEGO R A FASHION VALLEY AT SAN DIEGO CA,ST,32.76504998,-117.1686449,F,NAD83, 20, 10,NGVD29,18070304,dv,00060,00003,7745,1982-01-18,2020-11-17,14184,38,40,20331516,"c(-117.1686449, 32.76504998)"
USGS,11023330,LOS PENASQUITOS C BL POWAY C NR POWAY CA,ST,32.94921245,-117.070032,F,NAD83,NA,NA,NA,18070304,dv,00060,00003,7754,1969-11-22,1993-09-29,8679,24,13,20331178,"c(-117.070032, 32.94921245)"
USGS,11023340,LOS PENASQUITOS C NR POWAY CA,ST,32.9431013,-117.1216999,F,NAD83, 300, 10,NGVD29,18070304,dv,00060,00003,7755,1964-10-01,2020-11-17,20502,56,40,20331196,"c(-117.1216999, 32.9431013)"
USGS,11025500,SANTA YSABEL C NR RAMONA CA,ST,33.1069866,-116.866137,F,NAD83, 847.88, 10,NGVD29,18070304,dv,00060,00003,7760,1912-02-01,2020-11-17,32191,108,40,20330878,"c(-116.866137, 33.1069866)"
USGS,11027000,GUEJITO C NR SAN PASQUAL CA,ST,33.1158743,-116.9530841,F,NAD83, 610.00, 10,NGVD29,18070304,dv,00060,00003,7762,1947-01-01,2020-11-17,18676,73,40,20330872,"c(-116.9530841, 33.1158743)"
USGS,11028500,SANTA MARIA C NR RAMONA CA,ST,33.0522655,-116.9455844,F,NAD83, 1294.44, 10,NGVD29,18070304,dv,00060,00003,7765,1912-12-01,2020-11-17,29937,108,40,20330908,"c(-116.9455844, 33.0522655)"
USGS,11040200,KEYS C TRIB A VALLEY CENTER CA,ST,33.229203,-117.0366967,F,NAD83,NA,NA,NA,18070303,dv,00060,00003,7790,1970-10-01,1991-04-30,4960,21,11,20341767,"c(-117.0366967, 33.229203)"
USGS,11042000,SAN LUIS REY R A OCEANSIDE CA,ST,33.21809119,-117.3603162,F,NAD83, 20.00, 10,NGVD29,18070303,dv,00060,00003,7796,1912-10-01,2020-11-17,31792,108,40,20342539,"c(-117.3603162, 33.21809119)"
USGS,11042400,TEMECULA C NR AGUANGA CA,ST,33.45919759,-116.9236357,F,NAD83, 1590.00, 20,NGVD29,18070302,dv,00060,00003,7799,1957-08-01,2020-11-17,22756,63,40,22549471,"c(-116.9236357, 33.45919759)"
USGS,11042631,PECHANGA C NR TEMECULA CA,ST,33.46416667,-117.1238889,F,NAD83, 1040, 10,NGVD29,18070302,dv,00060,00003,7805,1987-10-01,2020-11-17,12036,33,40,22549093,"c(-117.1238889, 33.46416667)"
USGS,11042700,MURRIETA C NR MURRIETA CA,ST,33.55558075,-117.2314239,S,NAD83, 1105, 10,NGVD29,18070302,dv,00060,00003,7806,1997-10-01,2020-11-17,7743,23,40,22545337,"c(-117.2314239, 33.55558075)"
USGS,11042800,WARM SPRINGS C NR MURRIETA CA,ST,33.53224867,-117.1769771,F,NAD83,NA,NA,NA,18070302,dv,00060,00003,7807,1987-10-01,2020-11-17,11883,33,40,22547091,"c(-117.1769771, 33.53224867)"
USGS,11042900,SANTA GERTRUDIS C NR TEMECULA CA,ST,33.52447127,-117.1647544,F,NAD83, 1050, 10,NGVD29,18070302,dv,00060,00003,7808,1987-10-01,2020-11-17,11736,33,40,948070502,"c(-117.1647544, 33.52447127)"
USGS,11043000,MURRIETA C A TEMECULA CA,ST,33.47975066,-117.1439203,F,NAD83, 970.00, 10,NGVD29,18070302,dv,00060,00003,7809,1930-10-01,2020-11-17,32921,90,40,22549073,"c(-117.1439203, 33.47975066)"
USGS,11044000,SANTA MARGARITA R NR TEMECULA CA,ST,33.4739175,-117.1422536,F,NAD83, 950.00, 10,NGVD29,18070302,dv,00060,00003,7810,1923-02-01,2020-11-17,35720,97,40,22549075,"c(-117.1422536, 33.4739175)"
USGS,11044250,RAINBOW C NR FALLBROOK CA,ST,33.40753006,-117.200867,F,NAD83,NA,NA,NA,18070302,dv,00060,00003,7823,1989-11-01,2020-11-17,11340,31,40,22548475,"c(-117.200867, 33.40753006)"
USGS,11044300,SANTA MARGARITA R A FPUD SUMP NR FALLBROOK CA,ST,33.41364059,-117.2411462,F,NAD83,NA,NA,NA,18070302,dv,00060,00003,7824,1989-10-01,2020-11-17,11371,31,40,22548457,"c(-117.2411462, 33.41364059)"
USGS,11044350,SANDIA C NR FALLBROOK CA,ST,33.42447348,-117.249202,S,NAD83, 380, 10,NGVD29,18070302,dv,00060,00003,7833,1989-10-01,2020-11-17,11371,31,40,22548429,"c(-117.249202, 33.42447348)"
USGS,11044800,DE LUZ C NR DE LUZ CA,ST,33.4197511,-117.3217044,S,NAD83, 270, 10,NGVD29,18070302,dv,00060,00003,7836,1992-10-01,2020-11-17,10275,28,40,22548441,"c(-117.3217044, 33.4197511)"
USGS,11044900,DE LUZ C NR FALLBROOK CA,ST,33.3697528,-117.3225376,S,NAD83, 155.00, 10,NGVD29,18070302,dv,00060,00003,7837,1951-10-01,2005-01-10,6986,54,25,22549113,"c(-117.3225376, 33.3697528)"
USGS,11045300,FALLBROOK C NR FALLBROOK CA,ST,33.34697584,-117.3178152,S,NAD83, 190, 10,NGVD29,18070302,dv,00060,00003,7840,1993-10-01,2020-11-17,9910,27,40,22549115,"c(-117.3178152, 33.34697584)"
USGS,11045600,ONEILL LAKE OUTLET CH NR FALLBROOK CA,ST,33.3250321,-117.3255931,S,NAD83, 100, 10,NGVD29,18070302,dv,00060,00003,7842,1998-10-01,2020-11-17,7846,22,40,22548547,"c(-117.3255931, 33.3250321)"
USGS,11045700,ONEILL LK SPILL CH NR FALLBROOK CA,ST,33.32892087,-117.3272599,S,NAD83, 110, 10,NGVD29,18070302,dv,00060,00003,7843,1998-10-01,2020-11-17,7846,22,40,22549117,"c(-117.3272599, 33.32892087)"
USGS,11046000,SANTA MARGARITA R A YSIDORA CA,ST,33.3111436,-117.3472604,S,NAD83,NA,NA,NA,18070302,dv,00060,00003,7845,1923-03-01,2020-11-17,33282,97,40,22548559,"c(-117.3472604, 33.3111436)"
USGS,11046090,LAS FLORES C A LAS PULGAS CYN NR OCEANSIDE CA,ST,33.31864303,-117.4378185,S,NAD83, 110, 10,NGVD29,18070301,dv,00060,00003,7902,1998-10-01,2014-10-06,5850,16,34,20351081,"c(-117.4378185, 33.31864303)"
USGS,11046100,LAS FLORES C NR OCEANSIDE CA,ST,33.2936111,-117.4530556,1,NAD83, 40.00, 10,NGVD29,18070301,dv,00060,00003,7903,1951-10-01,2020-11-17,19404,69,40,20351631,"c(-117.4530556, 33.2936111)"
USGS,11046250,SAN ONOFRE C A SAN ONOFRE CA,ST,33.38391854,-117.5742128,F,NAD83, 15.00, 10,NGVD29,18070301,dv,00060,00003,7917,1946-10-01,2010-10-05,12312,64,30,20351625,"c(-117.5742128, 33.38391854)"
USGS,11046360,CRISTIANITOS C AB SAN MATEO C NR SAN CLEMENTE CA,ST,33.42641717,-117.5703242,S,NAD83, 90, 10,NGVD29,18070301,dv,00060,00003,7935,1993-10-01,2020-11-17,9907,27,40,20350869,"c(-117.5703242, 33.42641717)"
USGS,11046530,SAN JUAN C AT LA NOVIA ST BR AT SAN JUAN CAPIS CA,ST,33.5025264,-117.6481058,F,NAD83,NA,NA,NA,18070301,dv,00060,00003,7961,1985-10-01,2020-11-17,12832,35,40,20348919,"c(-117.6481058, 33.5025264)"
USGS,11047300,ARROYO TRABUCO A SAN JUAN CAPISTRANO CA,ST,33.49835999,-117.6658843,S,NAD83, 80, 10,NGVD29,18070301,dv,00060,00003,7972,1972-10-01,2020-11-17,13197,48,40,20350681,"c(-117.6658843, 33.49835999)"
USGS,11048200,AGUA CHINON WASH NR IRVINE CA,ST,33.67890959,-117.7142187,S,NAD83, 440, 10,NGVD29,18070204,dv,00060,00003,7980,2002-07-01,2020-10-25,6692,18,40,20355400,"c(-117.7142187, 33.67890959)"
USGS,11048400,MARSHBURN CHANNEL NR IRVINE CA,ST,33.68390946,-117.7453307,S,NAD83, 275, 10,NGVD29,18070204,dv,00060,00003,7981,2002-07-01,2014-03-31,4292,12,34,20357218,"c(-117.7453307, 33.68390946)"
USGS,11048600,BONITA C A IRVINE CA,ST,33.64502095,-117.8611673,S,NAD83, 30,  5,NGVD29,18070204,dv,00060,00003,8003,2001-07-01,2020-11-17,7080,19,40,20355520,"c(-117.8611673, 33.64502095)"
USGS,11049250,SCE SANTA ANA R CN LOW FLOW REL BL NO 1 DIV DAM,ST,34.16138889,-117.0155556,U,NAD83, 3440, 20,NGVD29,18070203,dv,00060,00003,213383,2006-02-08,2019-09-30,4983,13,39,22555498,"c(-117.0155556, 34.16138889)"
USGS,11049500,SCE SANTA ANA R CN AB PP3 NR MENTONE CA,ST,34.11362248,-117.0964244,F,NAD83,NA,NA,NA,18070203,dv,00060,00003,213064,1974-10-01,2020-09-30,16802,46,40,22558244,"c(-117.0964244, 34.11362248)"
USGS,11049590,SANTA ANA R CANAL GREENSPOT SPILL NR MENTONE CA,ST,34.1089004,-117.096702,S,NAD83, 2320, 20,NGVD29,18070203,dv,00060,00003,213384,2006-10-01,2019-12-31,4583,13,39,22558244,"c(-117.096702, 34.1089004)"
USGS,11051499,SANTA ANA R NR MENTONE (RIVER ONLY) CA,ST,34.10834489,-117.1005911,F,NAD83, 1950, 20,NGVD29,18070203,dv,00060,00003,8008,1994-10-01,2020-11-17,9545,26,40,22558244,"c(-117.1005911, 34.10834489)"
USGS,11051500,SANTA ANA R NR MENTONE CA,ST,34.10834489,-117.1005911,F,NAD83, 1950, 20,NGVD29,18070203,dv,00060,00003,213385,1896-07-01,2020-11-17,45329,124,40,22558244,"c(-117.1005911, 34.10834489)"
USGS,11051501,SANTA ANA R NR MENTONE CN + CN CA,ST,34.10834489,-117.1005911,F,NAD83,NA,NA,NA,18070203,dv,00060,00003,213403,1912-03-01,2019-12-31,39298,107,39,22558244,"c(-117.1005911, 34.10834489)"
USGS,11051502,SAR SUPP GAGE NR MENTONE CA,ST,34.10834489,-117.1005911,F,NAD83,NA,NA,NA,18070203,dv,00060,00003,8014,1977-10-01,2020-11-17,12257,43,40,22558244,"c(-117.1005911, 34.10834489)"
USGS,11053000,MILL C POWER CN NO 1 NR YUCAIPA CA,ST,34.09112315,-117.0372547,F,NAD83,NA,NA,NA,18070203,dv,00060,00003,8021,1972-07-07,1992-09-30,7325,20,12,22556090,"c(-117.0372547, 34.09112315)"
USGS,11055350,PLUNGE C UP DIV NR EAST HIGHLANDS CA,ST,34.13973269,-117.1494826,F,NAD83,NA,NA,NA,18070203,dv,00060,00003,8027,1965-10-01,2012-11-14,14069,47,32,22555914,"c(-117.1494826, 34.13973269)"
USGS,11055400,PLUNGE C MID DIV NR EAST HIGHLANDS CA,ST,34.1233444,-117.140593,S,NAD83, 1760, 10,NGVD29,18070203,dv,00060,00003,8029,1974-10-01,2012-11-14,13558,38,32,22555860,"c(-117.140593, 34.1233444)"
USGS,11055500,PLUNGE C NR EAST HIGHLANDS CA,ST,34.11834458,-117.141704,F,NAD83, 1590.00, 20,NGVD29,18070203,dv,00060,00003,8030,1919-02-01,2020-11-17,37179,101,40,22555860,"c(-117.141704, 34.11834458)"
USGS,11055501,PLUNGE C NR EAST HIGHLANDS AND CANALS CA,ST,34.11834458,-117.141704,F,NAD83,NA,NA,NA,18070203,dv,00060,00003,8031,1951-04-01,2012-09-29,22463,61,32,22555860,"c(-117.141704, 34.11834458)"
USGS,11055700,CITY C WATER CO CN NR HIGHLAND CA,ST,34.14417698,-117.1892063,F,NAD83,NA,NA,NA,18070203,dv,00060,00003,8032,1927-10-01,2020-10-05,21622,93,40,22555756,"c(-117.1892063, 34.14417698)"
USGS,11055800,CITY C NR HIGHLAND CA,ST,34.1438992,-117.1886507,F,NAD83, 1580.00, 20,NGVD29,18070203,dv,00060,00003,8033,1919-10-01,2020-11-17,36939,101,40,22555756,"c(-117.1886507, 34.1438992)"
USGS,11055801,CITY C NR HIGHLAND CA.+ CANALS CA,ST,34.1438992,-117.1886507,F,NAD83,NA,NA,NA,18070203,dv,00060,00003,222411,1924-05-27,2020-10-05,35196,96,40,22555756,"c(-117.1886507, 34.1438992)"
USGS,11057500,SAN TIMOTEO C NR LOMA LINDA CA,ST,34.0614024,-117.2675419,F,NAD83, 1040, 10,NGVD29,18070203,dv,00060,00003,8045,1954-10-01,2020-11-17,21657,66,40,22557960,"c(-117.2675419, 34.0614024)"
USGS,11058000,SAND CANYON C NR HIGHLAND CA,ST,34.1547222,-117.2266667,S,NAD83, 1520, 20,NGVD29,18070203,dv,00060,00003,8048,2008-04-11,2020-04-30,4048,12,40,22557854,"c(-117.2266667, 34.1547222)"
USGS,11058500,E TWIN C NR ARROWHEAD SPRINGS CA,ST,34.17917556,-117.2655982,S,NAD83, 1590, 20,NGVD29,18070203,dv,00060,00003,8049,1919-12-27,2020-11-17,36525,101,40,22555146,"c(-117.2655982, 34.17917556)"
USGS,11059300,SANTA ANA R A E ST NR SAN BERNARDINO CA,ST,34.0650131,-117.3003208,F,NAD83,NA,NA,NA,18070203,dv,00060,00003,8056,1939-03-01,2020-11-17,25119,81,40,24843752,"c(-117.3003208, 34.0650131)"
USGS,11060400,WARM C NR SAN BERNARDINO CA,ST,34.07834596,-117.3003209,F,NAD83, 960, 10,NGVD29,18070203,dv,00060,00003,8060,1964-03-01,2020-11-17,19985,56,40,22557922,"c(-117.3003209, 34.07834596)"
USGS,11060900,SCE LYTLE C CONDUIT NR FONTANA CA,ST,34.20278567,-117.4494936,F,NAD83,NA,NA,NA,18070203,dv,00060,00003,213126,1971-10-01,2020-09-30,17898,49,40,24843814,"c(-117.4494936, 34.20278567)"
USGS,11060901,LYTLE CON & INFIL LINE CA,ST,34.20278567,-117.4494936,F,NAD83,NA,NA,NA,18070203,dv,00060,00003,8067,1974-10-01,1991-09-29,2920,17,11,24843814,"c(-117.4494936, 34.20278567)"
USGS,11061000,FONTANA WATER CO INFILTRATION LINE NR FONTANA CA,ST,34.20278567,-117.4494936,F,NAD83,NA,NA,NA,18070203,dv,00060,00003,213128,1971-10-01,2020-09-30,17898,49,40,24843814,"c(-117.4494936, 34.20278567)"
USGS,11062000,LYTLE C NR FONTANA CA,ST,34.2122298,-117.458105,F,NAD83, 2380.00, 20,NGVD29,18070203,dv,00060,00003,8070,1918-10-01,2020-11-17,37064,102,40,22554826,"c(-117.458105, 34.2122298)"
USGS,11062001,LYTLE+BRLNE+COND+INF - W27 CA,ST,34.2122298,-117.458105,F,NAD83,NA,NA,NA,18070203,dv,00060,00003,222412,1899-01-01,2020-09-30,42001,121,40,22554826,"c(-117.458105, 34.2122298)"
USGS,11062300,FONTANA UWC BREEDLINE NR FONTANA CA,ST,34.20306344,-117.4494936,F,NAD83,NA,NA,NA,18070203,dv,00060,00003,8073,1971-11-10,1992-09-29,7629,21,12,24843814,"c(-117.4494936, 34.20306344)"
USGS,11062399,FONTANA WATER CO SURFACE DIV WEIR 2 NR FONTANA CA,ST,34.20278567,-117.4494936,S,NAD83, 2240, 20,NGVD29,18070203,dv,00060,00003,8074,1992-10-01,2020-11-17,10275,28,40,24843814,"c(-117.4494936, 34.20278567)"
USGS,11062400,FONTANA WATER CO SURFACE DIV NR FONTANA CA,ST,34.20306344,-117.4494936,F,NAD83,NA,NA,NA,18070203,dv,00060,00003,8075,1971-12-01,2020-11-17,17702,49,40,24843814,"c(-117.4494936, 34.20306344)"
USGS,11062401,LYTLE C + BREEDLINE NR FONTANA CA,ST,34.20306344,-117.4494936,F,NAD83,NA,NA,NA,18070203,dv,00060,00003,8076,1974-10-01,1991-09-29,2920,17,11,24843814,"c(-117.4494936, 34.20306344)"
USGS,11062402,LYTLE C SURFACE DIV NR FONTANA CA,ST,34.20306344,-117.4494936,S,NAD83, 2240, 20,NGVD29,18070203,dv,00060,00003,226050,1971-12-01,2020-11-17,17702,49,40,24843814,"c(-117.4494936, 34.20306344)"
USGS,11062411,LYTLE + BRLNE+COND+INF CA,ST,34.20306344,-117.4494936,F,NAD83,NA,NA,NA,18070203,dv,00060,00003,8078,1974-10-01,1991-09-29,2920,17,11,24843814,"c(-117.4494936, 34.20306344)"
USGS,11062450,FONTANA PH FOREBAY SPILLWAY NR FONTANA CA,ST,34.20278567,-117.4492158,F,NAD83,NA,NA,NA,18070203,dv,00060,00003,8079,1972-10-01,2020-11-17,17580,48,40,24843814,"c(-117.4492158, 34.20278567)"
USGS,11062700,LYTLE C DIV TO FONTANA PH AVM NR FONTANA CA,ST,34.1554722,-117.3975833,S,NAD83, 1591, 20,NGVD29,18070203,dv,00060,00003,224424,1972-10-01,2020-09-30,17531,48,40,22555654,"c(-117.3975833, 34.1554722)"
USGS,11062800,FONTANA WATER CO SPILL CH FROM AFTERBAY NR FONTANA,ST,34.155565,-117.3956025,F,NAD83,NA,NA,NA,18070203,dv,00060,00003,8081,1971-12-01,2020-11-17,17797,49,40,22555654,"c(-117.3956025, 34.155565)"
USGS,11062820,FONTANA WATER CO DIV NR FONTANA CA,ST,34.1547317,-117.3967137,F,NAD83,NA,NA,NA,18070203,dv,00060,00003,8083,1975-10-01,2017-10-02,15343,42,37,22555654,"c(-117.3967137, 34.1547317)"
USGS,11063500,LONE PINE C NR KEENBROOK CA,ST,34.2663946,-117.4639388,F,NAD83, 2605.92, 20,NGVD29,18070203,dv,00060,00003,8085,1920-01-01,2008-09-29,28488,88,28,22557742,"c(-117.4639388, 34.2663946)"
USGS,11063510,CAJON C BL LONE PINE C NR KEENBROOK CA,ST,34.2633392,-117.4669944,F,NAD83, 2600, 20,NGVD29,18070203,dv,00060,00003,8086,1971-10-01,2020-11-17,15754,49,40,22557744,"c(-117.4669944, 34.2633392)"
USGS,11063680,DEVIL CYN C NR SAN BERNARDINO CA,ST,34.20834107,-117.331434,F,NAD83, 2080.00, 20,NGVD29,18070203,dv,00060,00003,8087,1920-01-01,2020-11-17,36847,100,40,22554872,"c(-117.331434, 34.20834107)"
USGS,11063682,EB CA AQUEDUCT A DEVIL CYN PP NR SAN BERNARDINO CA,ST,34.20556339,-117.3344897,S,NAD83, 1939, 20,NGVD29,18070203,dv,00060,00003,213424,1995-10-01,2019-09-30,8401,24,39,22558116,"c(-117.3344897, 34.20556339)"
USGS,11065000,LYTLE C A COLTON CA,ST,34.07890146,-117.3055989,F,NAD83,NA,NA,NA,18070203,dv,00060,00003,8090,1957-10-01,2020-11-17,22795,63,40,22557922,"c(-117.3055989, 34.07890146)"
USGS,11066460,SANTA ANA R A MWD CROSSING CA,ST,33.96862566,-117.4483806,F,NAD83, 685, 10,NGVD29,18070203,dv,00060,00003,8098,1970-03-09,2020-11-17,18517,50,40,22563032,"c(-117.4483806, 33.96862566)"
USGS,11069200,LK HEMET WC UP CN NR SAN JACINTO CA,ST,33.73890959,-116.825854,F,NAD83,NA,NA,NA,18070202,dv,00060,00003,8127,1965-10-01,1991-09-30,6913,26,11,22535256,"c(-116.825854, 33.73890959)"
USGS,11069500,SAN JACINTO R NR SAN JACINTO,ST,33.73807629,-116.8339098,S,NAD83, 1920, 20,NGVD29,18070202,dv,00060,00003,8129,1920-10-01,2020-11-17,34729,100,40,22535256,"c(-116.8339098, 33.73807629)"
USGS,11069501,SAN JACINTO R NR SAN JACINTO + CANALS CA,ST,33.73807629,-116.8339098,F,NAD83,NA,NA,NA,18070202,dv,00060,00003,8131,1948-10-01,1990-09-29,15339,42,10,22535256,"c(-116.8339098, 33.73807629)"
USGS,11070020,BAUTISTA C AT HD OF FLOOD CHANNEL NR HEMET CA,ST,33.7116884,-116.868633,F,NAD83,NA,NA,NA,18070202,dv,00060,00003,8133,1987-10-01,2006-09-29,6939,19,26,22536218,"c(-116.868633, 33.7116884)"
USGS,11070150,SAN JACINTO R AB STATE STREET NR SAN JACINTO CA,ST,33.8214075,-116.973358,S,NAD83, 1500, 20,NGVD29,18070202,dv,00060,00003,8138,1996-10-01,2006-09-29,3651,10,26,22537332,"c(-116.973358, 33.8214075)"
USGS,11070210,SAN JACINTO R A RAMONA EXPRESSWAY NR LAKEVIEW CA,ST,33.83974065,-117.135866,S,NAD83, 1420, 10,NGVD29,18070202,dv,00060,00003,8139,2000-08-23,2020-11-17,7374,20,40,22534640,"c(-117.135866, 33.83974065)"
USGS,11070240,SUNNYMEAD CHANNEL A ALLESANDRO BLVD NR SNYM CA,ST,33.91723957,-117.2436504,F,NAD83,NA,NA,NA,18070202,dv,00060,00003,8143,1970-02-01,1993-04-19,3283,23,13,22532738,"c(-117.2436504, 33.91723957)"
USGS,11070256,PERRIS VALLEY STORM DR A NANDINO AVE NR MAR CA,ST,33.8669625,-117.2128148,F,NAD83,NA,NA,NA,18070202,dv,00060,00003,8145,1970-01-27,1993-04-19,2924,23,13,22532826,"c(-117.2128148, 33.8669625)"
USGS,11070262,PERRIS VALLEY STORM DR A LAT B A PERRIS BLV N CA,ST,33.8586293,-117.2264265,F,NAD83,NA,NA,NA,18070202,dv,00060,00003,8149,1969-10-01,1993-04-19,3405,24,13,22532830,"c(-117.2264265, 33.8586293)"
USGS,11070270,PERRIS VALLEY STORM DR A NUEVO RD NR PERRIS CA,ST,33.80113024,-117.2061469,F,NAD83,NA,NA,NA,18070202,dv,00060,00003,8153,1969-10-01,2020-03-04,12947,51,40,22534638,"c(-117.2061469, 33.80113024)"
USGS,11070365,SAN JACINTO R NR SUN CITY CA,ST,33.74613114,-117.231703,S,NAD83, 1400, 20,NGVD29,18070202,dv,00060,00003,8154,2000-08-25,2020-11-17,7390,20,40,22532938,"c(-117.231703, 33.74613114)"
USGS,11070465,SALT C A MURRIETA RD NR SUN CITY CA,ST,33.6941882,-117.2055903,S,NAD83, 1405, 20,NGVD29,18070202,dv,00060,00003,8156,1983-10-01,2020-11-17,8083,37,40,22532978,"c(-117.2055903, 33.6941882)"
USGS,11070500,SAN JACINTO R NR ELSINORE CA,ST,33.66418858,-117.293927,F,NAD83, 1270.00, 20,NGVD29,18070202,dv,00060,00003,8158,1916-01-01,2020-11-17,38308,104,40,22534666,"c(-117.293927, 33.66418858)"
USGS,11072100,TEMESCAL C AB MAIN ST A CORONA CA,ST,33.8891821,-117.5628274,F,NAD83, 600, 10,NGVD29,18070203,dv,00060,00003,8161,1980-10-01,2020-11-17,14225,40,40,22560716,"c(-117.5628274, 33.8891821)"
USGS,11073300,SAN ANTONIO C A RIVERSIDE DRIVE NR CHINO CA,ST,34.01862319,-117.7306118,S,NAD83, 735,  5,NGVD29,18070203,dv,00060,00003,8166,1998-12-19,2020-11-17,8005,22,40,22557914,"c(-117.7306118, 34.01862319)"
USGS,11073360,CHINO C A SCHAEFER AVENUE NR CHINO CA,ST,34.00390144,-117.7270006,S,NAD83, 685,  5,NGVD29,18070203,dv,00060,00003,8167,1969-10-01,2020-11-17,18676,51,40,22556372,"c(-117.7270006, 34.00390144)"
USGS,11073493,W BR CUCAMONGA CHANNEL AB ELY PERC BASIN A ONTARIO,ST,34.0375119,-117.6200532,S,NAD83, 850,2.5,NGVD29,18070203,dv,00060,00003,8170,1996-10-01,2010-12-31,5205,14,30,22556262,"c(-117.6200532, 34.0375119)"
USGS,11073495,CUCAMONGA C NR MIRA LOMA CA,ST,33.9827912,-117.5994966,F,NAD83, 660, 10,NGVD29,18070203,dv,00060,00003,8174,1968-02-01,2020-11-17,18776,52,40,22563070,"c(-117.5994966, 33.9827912)"
USGS,11074000,SANTA ANA R BL PRADO DAM CA,ST,33.88334875,-117.6453296,F,NAD83, 449, 10,NGVD29,18070203,dv,00060,00003,8183,1940-09-30,2020-11-17,29269,80,40,22563116,"c(-117.6453296, 33.88334875)"
USGS,11075620,SANTA ANA R SPRD DIV BL IMPERIAL HWY NR ANA CA,ST,33.85640444,-117.8008893,F,NAD83, 262,  5,NGVD29,18070203,dv,00060,00003,8203,1974-07-03,2001-09-29,5095,27,21,22560942,"c(-117.8008893, 33.85640444)"
USGS,11075720,CARBON C BL CARBON CYN DAM CA,ST,33.91334748,-117.8425584,F,NAD83,NA,NA,NA,18070106,dv,00060,00003,8209,1961-10-01,2020-11-17,21598,59,40,22527369,"c(-117.8425584, 33.91334748)"
USGS,11075800,SANTIAGO C A MODJESKA CA,ST,33.70890848,-117.635605,S,NAD83, 1340, 20,NGVD29,18070203,dv,00060,00003,8220,1961-10-01,2020-11-17,21598,59,40,22563272,"c(-117.635605, 33.70890848)"
USGS,11077500,SANTIAGO C A SANTA ANA CA,ST,33.7702946,-117.8845014,F,NAD83, 110.00,2.5,NGVD29,18070203,dv,00060,00003,8223,1928-10-01,2020-11-17,33571,92,40,22563210,"c(-117.8845014, 33.7702946)"
USGS,11078000,SANTA ANA R A SANTA ANA CA,ST,33.75112815,-117.9083906,F,NAD83, 70,2.5,NGVD29,18070203,dv,00060,00003,8225,1923-02-01,2020-11-17,35355,97,40,22563212,"c(-117.9083906, 33.75112815)"
USGS,11085000,SAN GABRIEL R BL SANTA FE DAM NR BALDWIN PK CA,ST,34.11223019,-117.9695092,F,NAD83, 400.00,.10,NGVD29,18070106,dv,00060,00003,8242,1942-10-01,2020-11-17,25980,78,40,22524845,"c(-117.9695092, 34.11223019)"
USGS,11087020,SAN GABRIEL R AB WHITTIER NARROWS DAM CA,ST,34.03417767,-118.0381225,F,NAD83,NA,NA,NA,18070106,dv,00060,00003,8249,1955-10-01,2020-11-17,21598,65,40,22521721,"c(-118.0381225, 34.03417767)"
USGS,11088500,BREA C BL BREA DAM NR FULLERTON CA,ST,33.88779206,-117.9264496,F,NAD83,NA,NA,NA,18070106,dv,00060,00003,8254,1942-01-01,2020-11-17,28811,78,40,22527375,"c(-117.9264496, 33.88779206)"
USGS,11089500,FULLERTON C BL FULLERTON DAM NR BREA CA,ST,33.89584765,-117.8861706,F,NAD83,NA,NA,NA,18070106,dv,00060,00003,8257,1941-10-01,2020-11-17,28903,79,40,22527373,"c(-117.8861706, 33.89584765)"
USGS,11092450,LOS ANGELES R A SEPULVEDA DAM CA,ST,34.16167247,-118.466749,F,NAD83, 663.00, 10,NGVD29,18070105,dv,00060,00003,8265,1931-10-01,2020-11-17,24143,89,40,22515812,"c(-118.466749, 34.16167247)"
USGS,11097000,BIG TUJUNGA C BL HANSEN DAM CA,ST,34.25361395,-118.38897,F,NAD83,NA,NA,NA,18070105,dv,00060,00003,8275,1932-05-01,2020-11-17,31367,88,40,22515762,"c(-118.38897, 34.25361395)"
USGS,11101250,RIO HONDO AB WHITTIER NARROWS DAM CA,ST,34.05834368,-118.0717348,F,NAD83,NA,NA,NA,18070105,dv,00060,00003,8287,1956-03-01,2020-11-17,23638,64,40,22515826,"c(-118.0717348, 34.05834368)"
USGS,11102300,RIO HONDO BL WHITTIER NARROWS DAM CA,ST,34.0166788,-118.0884018,F,NAD83,NA,NA,NA,18070105,dv,00060,00003,8292,1966-10-01,2020-10-01,19406,54,40,22515830,"c(-118.0884018, 34.0166788)"
USGS,11103000,LOS ANGELES R A LONG BEACH CA,ST,33.81723937,-118.2064584,F,NAD83, 11.91,2.5,NGVD29,18070105,dv,00060,00003,8297,1928-12-26,1992-09-29,21461,64,12,22518274,"c(-118.2064584, 33.81723937)"
USGS,11106550,CALLEGUAS C NR CAMARILLO CA,ST,34.17944989,-119.0398242,F,NAD83, 58.42,.05,NGVD29,18070103,dv,00060,00003,165963,1968-10-01,2016-10-30,12812,48,36,17562626,"c(-119.0398242, 34.17944989)"
USGS,11107745,SANTA CLARA R AB RR STATION NR LANG CA,ST,34.42971779,-118.3553578,F,NAD83, 1790, 20,NAVD88,18070102,dv,00060,00003,8324,1949-10-01,2005-09-29,11189,56,25,17574557,"c(-118.3553578, 34.42971779)"
USGS,11107860,BOUQUET C NR SAUGUS CA,ST,34.44888388,-118.507029,S,NAD83, 1305, 10,NAVD88,18070102,dv,00060,00003,8326,1970-10-01,2003-09-29,2458,33,23,17574375,"c(-118.507029, 34.44888388)"
USGS,11108000,SANTA CLARA R NR SAUGUS CA,ST,34.42610707,-118.5867537,S,NAD83, 1046.24, 10,NAVD88,18070102,dv,00060,00003,8329,1929-10-01,2005-09-29,10818,76,25,17574541,"c(-118.5867537, 34.42610707)"
USGS,11108075,CASTAIC C AB FISH C NR CASTAIC CA,ST,34.60637689,-118.6650888,F,NAD83, 1640, 20,NGVD29,18070102,dv,00060,00003,8330,1976-10-01,1993-09-29,2554,17,13,17569701,"c(-118.6650888, 34.60637689)"
USGS,11108080,FISH C AB CASTAIC C NR CASTAIC CA,ST,34.60248818,-118.6628665,F,NAD83,NA,NA,NA,18070102,dv,00060,00003,8331,1976-10-01,1993-09-29,2554,17,13,17569729,"c(-118.6628665, 34.60248818)"
USGS,11108090,ELDERBERRY CYN C AB CASTAIC C NR CASTAIC CA,ST,34.5722118,-118.6253655,F,NAD83,NA,NA,NA,18070102,dv,00060,00003,8333,1977-10-01,1993-09-29,2189,16,13,17569915,"c(-118.6253655, 34.5722118)"
USGS,11108095,NECKTIE CYN C AB CASTAIC C NR CASTAIC CA,ST,34.56054568,-118.6150874,F,NAD83,NA,NA,NA,18070102,dv,00060,00003,8335,1976-10-01,1993-09-29,2554,17,13,17570001,"c(-118.6150874, 34.56054568)"
USGS,11108130,ELIZABETH LK CYN C AB CASTAIC LK NR CASTAIC CA,ST,34.57610057,-118.5570301,F,NAD83,NA,NA,NA,18070102,dv,00060,00003,8336,1976-10-01,1993-09-29,2554,17,13,17569955,"c(-118.5570301, 34.57610057)"
USGS,11108134,CASTAIC C BLW MWD DIV BLW CASTAIC LK NR CASTAIC,ST,34.5194364,-118.6103652,S,NAD83, 1240, 20,NGVD29,18070102,dv,00060,00003,213432,1994-10-01,2019-09-30,8400,25,39,17572447,"c(-118.6103652, 34.5194364)"
USGS,11108135,CASTAIC LAGOON PARSHALL FL NR CASTAIC CA,ST,34.51027017,-118.6086985,F,NAD83,NA,NA,NA,18070102,dv,00060,00003,8339,1976-10-01,1994-09-30,2920,18,14,17572447,"c(-118.6086985, 34.51027017)"
USGS,11108500,SANTA CLARA RIVER AT L.A.-VENTURA CO. LINE CA,ST,34.39971939,-118.7048126,F,NAD83, 794.93, 10,NGVD29,18070102,dv,00060,00003,8346,1952-10-01,1996-10-21,16092,44,16,17574705,"c(-118.7048126, 34.39971939)"
USGS,11109000,SANTA CLARA R NR PIRU CA,ST,34.40360813,-118.739258,S,NAD83, 710, 10,NGVD29,18070102,dv,00060,00003,8352,1927-10-01,2020-11-17,10637,93,40,17575785,"c(-118.739258, 34.40360813)"
USGS,11109375,PIRU C BL BUCK C NR PYRAMID LK CA,ST,34.6660963,-118.8242608,F,NAD83,NA,NA,NA,18070102,dv,00060,00003,213436,1976-10-01,2019-09-30,9495,43,39,17569367,"c(-118.8242608, 34.6660963)"
USGS,11109395,CANADA DE LOS ALAMOS AB PYRAMID LK CA,ST,34.69192849,-118.7912038,F,NAD83,NA,NA,NA,18070102,dv,00060,00003,213438,1976-10-01,2019-09-30,10956,43,39,17572225,"c(-118.7912038, 34.69192849)"
USGS,11109396,CA AQUEDUCT A N PORTAL TEHACHAPI TNL NR GORMAN CA,ST,34.9294166,-118.8056509,S,NAD83, 3220, 25,NGVD29,18030003,dv,00060,00003,8363,1995-10-01,2015-09-30,6209,20,35,17176094,"c(-118.8056509, 34.9294166)"
USGS,11109398,WB CA AQUEDUCT A WILLIAM WARNE PP NR GORMAN CA,ST,34.6852621,-118.7887037,S,NAD83, 2582,.01,NGVD29,18070102,dv,00060,00003,213441,1995-10-01,2010-09-30,5113,15,30,17572357,"c(-118.7887037, 34.6852621)"
USGS,11109525,PIRU C BL PYRAMID LK NR GORMAN CA,ST,34.64165299,-118.7645362,F,NAD83, 2200,.05,NGVD29,18070102,dv,00060,00003,213447,1988-10-01,2019-09-30,10591,31,39,17569497,"c(-118.7645362, 34.64165299)"
USGS,11109550,PIRU C AB FRENCHMANS FLAT CA,ST,34.63082016,-118.7484244,U,NAD83, 2140, 20,NGVD29,18070102,dv,00060,00003,8369,1976-10-01,2020-11-17,3576,44,40,17572259,"c(-118.7484244, 34.63082016)"
USGS,11109600,PIRU CREEK ABOVE LAKE PIRU CA,ST,34.52304728,-118.7570362,F,NAD83, 1058.55,.10,NGVD29,18070102,dv,00060,00003,8373,1955-10-01,2020-11-17,23790,65,40,17572335,"c(-118.7570362, 34.52304728)"
USGS,11109800,PIRU CREEK BELOW SANTA FELICIA DAM CA,ST,34.4602723,-118.7520361,F,NAD83,NA,NA,NA,18070102,dv,00060,00003,8379,1955-10-01,2020-11-17,21949,65,40,17575859,"c(-118.7520361, 34.4602723)"
USGS,11112500,FILLMORE IRR CO CN NR FILLMORE CA,ST,34.45416125,-118.9253767,S,NAD83, 680, 20,NGVD29,18070102,dv,00060,00003,8398,1939-10-01,1993-01-12,9599,54,13,17574265,"c(-118.9253767, 34.45416125)"
USGS,11113001,SESPE C + FILLMORE IRR CO CN NR FILLMORE CA,ST,34.45082807,-118.9259322,F,NAD83,NA,NA,NA,18070102,dv,00060,00003,8408,1939-10-01,1993-01-14,19056,54,13,17574345,"c(-118.9259322, 34.45082807)"
USGS,11113500,SANTA PAULA C NR SANTA PAULA,ST,34.4133295,-119.0823272,F,NAD83, 619.43,.01,NGVD29,18070102,dv,00060,00003,8411,1927-10-01,2020-11-17,33650,93,40,17573647,"c(-119.0823272, 34.4133295)"
USGS,11114000,SANTA CLARA RIVER AT MONTALVO CA,ST,34.27889168,-119.142051,F,NAD83, 120, 10,NGVD29,18070102,dv,00060,00003,8424,1927-10-01,2004-09-29,20819,77,24,17573685,"c(-119.142051, 34.27889168)"
USGS,11114495,MATILIJA C NR RES NR MATILIJA HOT SPRINGS CA,ST,34.5027693,-119.3573393,S,NAD83, 1380, 20,NAVD88,18070101,dv,00060,00003,8427,2002-02-15,2020-11-17,6327,18,40,17585808,"c(-119.3573393, 34.5027693)"
USGS,11118400,VENTURA R DIV NR VENTURA CA,ST,34.35833118,-119.310669,F,NAD83,NA,NA,NA,18070101,dv,00060,00003,8442,1969-10-01,2008-09-11,12749,39,28,17587720,"c(-119.310669, 34.35833118)"
USGS,11118500,VENTURA R NR VENTURA,ST,34.35222038,-119.3084466,F,NAD83, 200.00, 10,NGVD29,18070101,dv,00060,00003,8444,1929-10-01,2020-11-17,33283,91,40,948070372,"c(-119.3084466, 34.35222038)"
USGS,11118501,VENTURA R NR VENTURA+ DIV. CA,ST,34.35222038,-119.3084466,F,NAD83,NA,NA,NA,18070101,dv,00060,00003,8447,1932-10-01,2007-09-29,27032,75,27,948070372,"c(-119.3084466, 34.35222038)"
USGS,11119500,CARPINTERIA C NR CARPINTERIA CA,ST,34.4013836,-119.4865103,F,NAD83, 130.00, 20,NGVD29,18060013,dv,00060,00003,8448,1941-01-01,2020-11-17,28810,79,40,17596159,"c(-119.4865103, 34.4013836)"
USGS,11119745,MISSION C A ROCKY NOOK PARK A SANTA BARBARA CA,ST,34.44055266,-119.7118027,S,NAD83, 400, 25,NGVD29,18060013,dv,00060,00003,8453,1983-10-28,2020-11-17,9518,37,40,17595453,"c(-119.7118027, 34.44055266)"
USGS,11119750,MISSION C NR MISSION ST NR SANTA BARBARA CA,ST,34.4275,-119.7252778,5,NAD83, 140, 25,NGVD29,18060013,dv,00060,00003,8456,1970-10-01,2020-11-17,17841,50,40,17595453,"c(-119.7252778, 34.4275)"
USGS,11119780,ARROYO BURRO A SANTA BARBARA CA,ST,34.43694215,-119.7465269,F,NAD83,NA,NA,NA,18060013,dv,00060,00003,8458,1970-10-01,1993-09-30,8401,23,13,17596153,"c(-119.7465269, 34.43694215)"
USGS,11119940,MARIA YGNACIO C A UNIVERSITY DRIVE NR GOLETA CA,ST,34.4449965,-119.80375,F,NAD83,NA,NA,NA,18060013,dv,00060,00003,8460,1970-10-01,2020-11-17,18309,50,40,17596111,"c(-119.80375, 34.4449965)"
USGS,11120000,ATASCADERO C NR GOLETA CA,ST,34.4247189,-119.811805,F,NAD83, 12.59, 10,NGVD29,18060013,dv,00060,00003,8461,1941-10-01,2020-11-17,28903,79,40,17595429,"c(-119.811805, 34.4247189)"
USGS,11121000,SANTA YNEZ R A JAMESON LK NR MONTECITO CA,ST,34.4922149,-119.507902,F,NAD83,NA,NA,NA,18060010,dv,00060,00003,8486,1988-10-01,2011-06-29,5598,23,31,17612503,"c(-119.507902, 34.4922149)"
USGS,11121010,JAMESON LK RELEASE WEIR A JAMESON LAKE CA,ST,34.4922149,-119.507902,F,NAD83,NA,NA,NA,18060010,dv,00060,00003,8487,1970-10-01,2013-10-20,12801,43,33,17612503,"c(-119.507902, 34.4922149)"
USGS,11121900,GIBRALTAR DAM DIV WEIR A GIBRALTAR DAM CA,ST,34.5241613,-119.68708,F,NAD83,NA,NA,NA,18060010,dv,00060,00003,8488,1970-10-01,2020-11-17,15081,50,40,17610919,"c(-119.68708, 34.5241613)"
USGS,11122010,GIBRALTAR DAM RELEASE WEIR A GIBRALTAR DAM CA,ST,34.52416133,-119.6873579,F,NAD83,NA,NA,NA,18060010,dv,00060,00003,8493,1988-10-01,2020-11-17,11286,32,40,17610919,"c(-119.6873579, 34.52416133)"
USGS,11123000,SANTA YNEZ R BL GIBRALTAR DAM NR SANTA BARBARA CA,ST,34.5244391,-119.6873579,F,NAD83,NA,NA,NA,18060010,dv,00060,00003,8494,1933-10-01,2020-11-17,31825,87,40,17610919,"c(-119.6873579, 34.5244391)"
USGS,11123500,SANTA YNEZ R BL LOS LAURLS CYN NR SNTA YNEZ CA,ST,34.54360358,-119.8648627,F,NAD83, 787.8,0.1,NGVD29,18060010,dv,00060,00003,8495,1947-05-13,2020-11-17,26840,73,40,17611449,"c(-119.8648627, 34.54360358)"
USGS,11125600,HILTON CYN C NR SANTA YNEZ CA,ST,34.58221109,-119.9826419,S,NAD83, 740, 20,NGVD29,18060010,dv,00060,00003,8500,2002-03-23,2016-12-01,5306,14,36,17610419,"c(-119.9826419, 34.58221109)"
USGS,11126000,SANTA YNEZ R NR SANTA YNEZ CA,ST,34.5891552,-119.9887532,F,NAD83, 545.66,.05,NGVD29,18060010,dv,00060,00003,8507,1929-01-01,2009-09-29,20672,80,29,17611567,"c(-119.9887532, 34.5891552)"
USGS,11128250,ALAMO PINTADO C NR SOLVANG CA,ST,34.61831975,-120.120703,F,NAD83, 540.49,.05,NGVD29,18060010,dv,00060,00003,8532,1970-10-01,2020-11-17,16119,50,40,17607945,"c(-120.120703, 34.61831975)"
USGS,11128500,SANTA YNEZ R A SOLVANG CA,ST,34.58498706,-120.1445926,F,NAD83, 350.00, 20,NGVD29,18060010,dv,00060,00003,8537,1928-10-01,2020-11-17,29915,92,40,17609015,"c(-120.1445926, 34.58498706)"
USGS,11129800,ZACA C NR BUELLTON CA,ST,34.64859614,-120.1843172,F,NAD83, 471.54,.01,NGVD29,18060010,dv,00060,00003,8549,1963-10-01,2020-11-17,16728,57,40,17607773,"c(-120.1843172, 34.64859614)"
USGS,11133000,SANTA YNEZ R A NARROWS NR LOMPOC CA,ST,34.63609474,-120.424606,F,NAD83, 85, 20,NGVD29,18060010,dv,00060,00003,8560,1952-05-01,2020-11-17,24304,68,40,948060325,"c(-120.424606, 34.63609474)"
USGS,11133500,SANTA YNEZ R NR LOMPOC CA,ST,34.6441501,-120.4309953,F,NAD83, 79.28, 20,NGVD29,18060010,dv,00060,00003,8567,1906-11-01,1998-06-18,18239,92,18,948060325,"c(-120.4309953, 34.6441501)"
USGS,11134000,SANTA YNEZ R A H ST NR LOMPOC CA,ST,34.6683162,-120.4579411,S,NAD83, 56.74,.01,NGVD29,18060010,dv,00060,00003,8569,1946-10-01,2020-11-17,13927,74,40,17608959,"c(-120.4579411, 34.6683162)"
USGS,11135800,SAN ANTONIO C A LOS ALAMOS CA,ST,34.74331534,-120.2709888,F,NAD83,NA,NA,NA,18060009,dv,00060,00003,8576,1970-10-01,2020-11-17,14658,50,40,17620166,"c(-120.2709888, 34.74331534)"
USGS,11136100,SAN ANTONIO C NR CASMALIA CA,ST,34.78220307,-120.530167,S,NAD83, 123.00, 20,NGVD29,18060009,dv,00060,00003,8581,1955-10-01,2020-11-17,19262,65,40,17620568,"c(-120.530167, 34.78220307)"
USGS,11136500,CUYAMA R NR VENTUCOPA CA,ST,34.68887277,-119.3578952,S,NAD83, 3500.00, 20,NGVD29,18060007,dv,00060,00003,8587,1945-09-30,2014-10-06,6581,69,34,17637968,"c(-119.3578952, 34.68887277)"
USGS,11136600,SANTA BARBARA CYN C NR VENTUCOPA CA,ST,34.82081299,-119.5573483,M,NAD83, 2960, 20,NGVD29,18060007,dv,00060,00003,8588,2009-10-01,2020-11-17,4066,11,40,17636636,"c(-119.5573483, 34.82081299)"
USGS,11136800,CUYAMA R BL BUCKHORN CYN NR SANTA MARIA CA,ST,35.0219213,-120.2284868,F,NAD83,NA,NA,NA,18060007,dv,00060,00003,8590,1959-10-01,2020-11-17,22329,61,40,17632490,"c(-120.2284868, 35.0219213)"
USGS,11137900,HUASNA R NR ARROYO GRANDE CA,ST,35.07775398,-120.3718267,F,NAD83,NA,NA,NA,18060007,dv,00060,00003,8594,1959-06-01,2020-11-17,16241,61,40,17632398,"c(-120.3718267, 35.07775398)"
USGS,11140000,SISQUOC R NR GAREY,ST,34.89386807,-120.3065463,F,NAD83, 354.80, 20,NGVD29,18060008,dv,00060,00003,8601,1941-02-01,2020-11-17,29139,79,40,17625349,"c(-120.3065463, 34.89386807)"
USGS,11140585,SANTA MARIA R A SUEY CROSSING NR SANTA MARIA CA,ST,34.96831117,-120.404051,S,NAD83, 250, 10,NGVD29,18060008,dv,00060,00003,8602,1999-04-01,2020-11-17,5319,21,40,17625465,"c(-120.404051, 34.96831117)"
USGS,11141050,ORCUTT C NR ORCUTT CA,ST,34.88359037,-120.4948883,F,NAD83,NA,NA,NA,18060008,dv,00060,00003,8609,1982-10-01,2020-11-17,12942,38,40,17624441,"c(-120.4948883, 34.88359037)"
USGS,11143200,CARMEL R A ROBLES DEL RIO CA,ST,36.47440615,-121.7288364,S,NAD83, 268.57, .1,NGVD29,18060006,dv,00060,00003,8636,1957-08-01,2020-11-17,23120,63,40,17600477,"c(-121.7288364, 36.47440615)"
USGS,11143250,CARMEL R NR CARMEL CA,ST,36.5391278,-121.8805084,F,NAD83,NA,NA,NA,18060006,dv,00060,00003,8637,1962-08-01,2020-11-17,21294,58,40,17599295,"c(-121.8805084, 36.5391278)"
USGS,11147070,SANTA RITA C NR TEMPLETON CA,ST,35.5238612,-120.7660077,F,NAD83, 860, 10,NGVD29,18060005,dv,00060,00003,8653,1961-10-01,1994-09-30,12053,33,14,8212151,"c(-120.7660077, 35.5238612)"
USGS,11147500,SALINAS R A PASO ROBLES CA,ST,35.6285813,-120.6843373,F,NAD83, 670.61, 10,NGVD29,18060005,dv,00060,00003,8658,1939-11-01,2020-11-17,28141,81,40,8212843,"c(-120.6843373, 35.6285813)"
USGS,11148500,ESTRELLA R NR ESTRELLA CA,ST,35.71719096,-120.6401683,F,NAD83, 671.59,.01,NGVD29,18060004,dv,00060,00003,8663,1954-10-01,2019-02-03,16562,65,39,17647991,"c(-120.6401683, 35.71719096)"
USGS,11149400,NACIMIENTO R BL NACIMIENTO DAM NR BRADLEY CA,ST,35.76135678,-120.855458,F,NAD83, 597.00, 10,NGVD29,18060005,dv,00060,00003,8672,1957-10-01,2020-11-17,23059,63,40,8212787,"c(-120.855458, 35.76135678)"
USGS,11149900,SAN ANTONIO R NR LOCKWOOD CA,ST,35.89663404,-121.0882491,F,NAD83, 795.00, 10,NGVD29,18060005,dv,00060,00003,8680,1965-10-01,2020-11-17,20137,55,40,8210533,"c(-121.0882491, 35.89663404)"
USGS,11150500,SALINAS R NR BRADLEY CA,ST,35.9302434,-120.8687915,S,NAD83, 442.69, 10,NGVD29,18060005,dv,00060,00003,8688,1948-10-01,2020-11-17,26346,72,40,8211251,"c(-120.8687915, 35.9302434)"
USGS,11151700,SALINAS R A SOLEDAD CA,ST,36.411076,-121.3193738,F,NAD83, 150.61,0.1,NGVD29,18060005,dv,00060,00003,8693,1968-10-01,2020-11-17,17214,52,40,948060170,"c(-121.3193738, 36.411076)"
USGS,11152000,ARROYO SECO NR SOLEDAD CA,ST,36.28052076,-121.3227063,F,NAD83, 339.20, 20,NGVD29,18060005,dv,00060,00003,8698,1901-10-01,2020-11-17,43513,119,40,8205291,"c(-121.3227063, 36.28052076)"
USGS,11152050,ARROYO SECO BL RELIZ C NR SOLEDAD CA,ST,36.39968708,-121.3240962,S,NAD83, 167.93,.05,NGVD29,18060005,dv,00060,00003,8699,1994-10-01,2020-11-17,9545,26,40,8205489,"c(-121.3240962, 36.39968708)"
USGS,11152300,SALINAS R NR CHUALAR CA,ST,36.55357267,-121.5493856,F,NAD83, 68.00,.10,NGVD29,18060005,dv,00060,00003,8703,1976-10-01,2020-11-17,16118,44,40,8200795,"c(-121.5493856, 36.55357267)"
USGS,11152500,SALINAS R NR SPRECKELS CA,ST,36.631071,-121.672446,F,NAD83, 20.56, 10,NGVD29,18060005,dv,00060,00003,8712,1929-10-01,2020-11-17,33286,91,40,8200523,"c(-121.672446, 36.631071)"
USGS,11152540,EL TORO C NR SPRECKELS CA,ST,36.5832937,-121.714947,F,NAD83, 210, 10,NGVD29,18060005,dv,00060,00003,8719,1961-10-01,2001-09-29,14609,40,21,8200677,"c(-121.714947, 36.5832937)"
USGS,11152600,GABILAN C NR SALINAS CA,ST,36.75579196,-121.6105005,F,NAD83,NA,NA,NA,18060015,dv,00060,00003,8721,1970-10-01,2014-09-29,16070,44,34,17605309,"c(-121.6105005, 36.75579196)"
USGS,11153000,PACHECO C NR DUNNEVILLE CA,ST,36.98,-121.3802778,S,NAD83, 233.46,.10,NAVD88,18060002,dv,00060,00003,8724,1939-10-01,2020-11-17,20867,81,40,17663037,"c(-121.3802778, 36.98)"
USGS,11153650,LLAGAS C NR GILROY,ST,36.98744858,-121.5271622,S,NAD83, 160, 10,NGVD29,18060002,dv,00060,00003,8731,2002-11-23,2020-11-17,6531,18,40,948060250,"c(-121.5271622, 36.98744858)"
USGS,11154200,UVAS C NR GILROY CA,ST,36.99217114,-121.5735532,F,NAD83,NA,NA,NA,18060002,dv,00060,00003,8741,1959-01-01,1992-09-30,12327,33,12,17663007,"c(-121.5735532, 36.99217114)"
USGS,11157500,TRES PINOS C NR TRES PINOS CA,ST,36.76579177,-121.2996532,S,NAD83, 515, 20,NGVD29,18060002,dv,00060,00003,8750,1922-12-08,2020-11-17,24973,98,40,17663791,"c(-121.2996532, 36.76579177)"
USGS,11158600,SAN BENITO R A HWY 156 NR HOLLISTER CA,ST,36.85189909,-121.4299368,F,NAD83,NA,NA,NA,18060002,dv,00060,00003,8753,1970-10-01,2020-11-17,18311,50,40,17663521,"c(-121.4299368, 36.85189909)"
USGS,11159000,PAJARO R A CHITTENDEN CA,ST,36.9002307,-121.5977215,F,NAD83, 81.89, 10,NGVD29,18060002,dv,00060,00003,8757,1939-10-01,2020-11-17,29634,81,40,17663281,"c(-121.5977215, 36.9002307)"
USGS,11159200,CORRALITOS C A FREEDOM CA,ST,36.9393968,-121.7705065,F,NAD83, 89.43,0.1,NGVD29,18060002,dv,00060,00003,8762,1956-10-01,2020-11-17,23424,64,40,17665491,"c(-121.7705065, 36.9393968)"
USGS,11159500,PAJARO R A WATSONVILLE CA,ST,36.9056111,-121.7518889,S,NAD83, 24,4.3,NAVD88,18060002,dv,00060,00003,242907,1911-10-01,2020-11-17,2111,109,40,17665505,"c(-121.7518889, 36.9056111)"
USGS,11160060,BEAR C A BOULDER C CA,ST,37.12772447,-122.1169089,F,NAD83,NA,NA,NA,18060015,dv,00060,00003,8774,1977-10-01,1992-12-31,5571,15,12,17682316,"c(-122.1169089, 37.12772447)"
USGS,11160430,BEAN C NR SCOTTS VALLEY CA,ST,37.0552261,-122.0413516,F,NAD83,NA,NA,NA,18060015,dv,00060,00003,8781,1989-01-06,2007-09-29,6841,18,27,17682446,"c(-122.0413516, 37.0552261)"
USGS,11161000,SAN LORENZO R A SANTA CRUZ CA,ST,36.9907832,-122.0319076,F,NAD83,NA,NA,NA,18060015,dv,00060,00003,8788,1952-10-01,2020-11-17,15023,68,40,17684066,"c(-122.0319076, 36.9907832)"
USGS,11162620,PILARCITOS C BL STONE DAM NR HILLSBOROUGH CA,ST,37.52466087,-122.3994177,S,NAD83, 500, 12,NGVD29,18050006,dv,00060,00003,8808,1997-10-01,2020-11-17,8449,23,40,17687547,"c(-122.3994177, 37.52466087)"
USGS,11162630,PILARCITOS C A HALF MOON BAY CA,ST,37.46660747,-122.434142,F,NAD83,NA,NA,NA,18050006,dv,00060,00003,8812,1966-07-01,2020-11-17,19864,54,40,17688275,"c(-122.434142, 37.46660747)"
USGS,11162720,COLMA C A SOUTH SAN FRANCISCO CA,ST,37.65382296,-122.4263613,F,NAD83, 12.53,.01,NGVD29,18050004,dv,00060,00003,8818,1963-10-01,1996-11-12,11494,33,16,2804039,"c(-122.4263613, 37.65382296)"
USGS,11162753,SAN MATEO C BL LO CRYSTAL SP RES NR SAN MATEO CA,ST,37.52944444,-122.3583333,S,NAD83, 160,12.,NGVD29,18050004,dv,00060,00003,8826,2008-09-12,2020-11-17,4450,12,40,2804621,"c(-122.3583333, 37.52944444)"
USGS,11162800,REDWOOD C A REDWOOD CITY CA,ST,37.44938279,-122.2335772,F,NAD83, 83.92, 10,NGVD29,18050004,dv,00060,00003,8842,1959-10-01,1997-10-20,13900,38,17,2809149,"c(-122.2335772, 37.44938279)"
USGS,11164500,SAN FRANCISQUITO C A STANFORD UNIVERSITY CA,ST,37.42327257,-122.1894095,F,NAD83, 115.75, 10,NGVD29,18050003,dv,00060,00003,8850,1930-10-01,2020-11-17,29633,90,40,17693217,"c(-122.1894095, 37.42327257)"
USGS,11166000,MATADERO C A PALO ALTO CA,ST,37.4216062,-122.1355193,F,NAD83, 17.01,.01,NGVD29,18050003,dv,00060,00003,8853,1952-10-01,2017-11-06,23356,65,37,17693219,"c(-122.1355193, 37.4216062)"
USGS,11169000,GUADALUPE R A SAN JOSE CA,ST,37.3343859,-121.8994,F,NAD83, 72.00,2.5,NGVD29,18050003,dv,00060,00003,8877,1929-10-01,2003-04-30,26875,74,23,17694137,"c(-121.8994, 37.3343859)"
USGS,11169025,GUADALUPE R ABV HWY 101 A SAN JOSE CA,ST,37.3738296,-121.9330129,S,NAD83, 17.57,.01,NAVD88,18050003,dv,00060,00003,8878,2002-05-23,2020-11-17,6754,18,40,17694137,"c(-121.9330129, 37.3738296)"
USGS,11169500,SARATOGA C A SARATOGA CA,ST,37.25438808,-122.039404,F,NAD83,NA,NA,NA,18050003,dv,00060,00003,8882,1933-10-01,2020-11-17,31824,87,40,17693069,"c(-122.039404, 37.25438808)"
USGS,11172175,COYOTE C AB HWY 237 A MILPITAS CA,ST,37.4221617,-121.9274577,S,NAD83, 10, 10,NGVD29,18050003,dv,00060,00003,8904,1999-01-01,2020-11-17,7992,21,40,17695611,"c(-121.9274577, 37.4221617)"
USGS,11172955,ALAMEDA C BL DIV DAM NR SUNOL CA,ST,37.4986111,-121.7794444,S,NAD83, 840, 20,NGVD29,18050004,dv,00060,00003,8916,2010-10-01,2020-11-17,3701,10,40,2809679,"c(-121.7794444, 37.4986111)"
USGS,11173500,CALAVERAS C NR SUNOL CA,ST,37.50194444,-121.8183333,S,NAD83, 475, 20,NGVD29,18050004,dv,00060,00003,8924,1898-04-01,2020-11-17,17818,122,40,2807009,"c(-121.8183333, 37.50194444)"
USGS,11173510,ALAMEDA C BL CALAVERAS C NR SUNOL CA,ST,37.5035472,-121.8246774,S,NAD83, 430, 20,NGVD29,18050004,dv,00060,00003,8928,1995-10-01,2020-11-17,8188,25,40,2806979,"c(-121.8246774, 37.5035472)"
USGS,11173575,ALAMEDA C BL WELCH C NR SUNOL CA,ST,37.5404908,-121.856345,S,NAD83, 300, 20,NGVD29,18050004,dv,00060,00003,8932,1999-10-01,2020-11-17,7718,21,40,2806865,"c(-121.856345, 37.5404908)"
USGS,11174000,SAN ANTONIO C NR SUNOL CA,ST,37.577434,-121.857734,S,NAD83, 271.56,.01,NGVD29,18050004,dv,00060,00003,8940,1912-01-01,2020-11-17,16392,108,40,2806745,"c(-121.857734, 37.577434)"
USGS,11176000,ARROYO MOCHO NR LIVERMORE CA,ST,37.62632039,-121.7046734,S,NAD83, 746.49,.01,NGVD29,18050004,dv,00060,00003,8949,1912-04-01,2002-01-16,20652,90,22,2806597,"c(-121.7046734, 37.62632039)"
USGS,11176090,ARROYO MOCHO A LIVERMORE CA,ST,37.67687486,-121.8143992,S,NAD83, 397, 10,NGVD29,18050004,dv,00060,00003,240097,1983-10-01,2019-04-30,1399,36,39,2806391,"c(-121.8143992, 37.67687486)"
USGS,11176200,ARROYO MOCHO NR PLEASANTON CA,ST,37.6904857,-121.8732899,S,NAD83, 335, 10,NGVD29,18050004,dv,00060,00003,240100,1962-09-01,2019-04-30,9159,57,39,2806357,"c(-121.8732899, 37.6904857)"
USGS,11176500,ARROYO VALLE NR LIVERMORE CA,ST,37.62326509,-121.7588418,F,NAD83, 510.44,.01,NGVD29,18050004,dv,00060,00003,8991,1912-04-01,2020-11-17,29815,108,40,2808553,"c(-121.7588418, 37.62326509)"
USGS,11176900,ARROYO DE LA LAGUNA A VERONA CA,ST,37.62659915,-121.8830126,S,NAD83, 280, 20,NGVD29,18050004,dv,00060,00003,9010,1912-04-01,2020-11-17,23603,108,40,2806611,"c(-121.8830126, 37.62659915)"
USGS,11177000,ARROYO DE LA LAGUNA NR PLEASANTON CA,ST,37.61521066,-121.8816236,F,NAD83, 251.40,.01,NGVD29,18050004,dv,00060,00003,9013,1912-04-01,2003-12-31,17436,91,23,2806611,"c(-121.8816236, 37.61521066)"
USGS,11179000,ALAMEDA C NR NILES CA,ST,37.58715679,-121.960793,F,NAD83, 85.65,.01,NGVD29,18050004,dv,00060,00003,9032,1891-01-01,2020-11-17,47436,129,40,2806725,"c(-121.960793, 37.58715679)"
USGS,11180700,ALAMEDA C FLOOD CHANNEL A UNION CITY CA,ST,37.58576818,-122.0482955,F,NAD83, 4.13,.01,NGVD29,18050004,dv,00060,00003,9043,1958-10-01,2020-11-17,22694,62,40,2805109,"c(-122.0482955, 37.58576818)"
USGS,11180900,CROW C NR HAYWARD CA,ST,37.70493008,-122.0438508,S,NAD83, 270, 10,NGVD29,18050004,dv,00060,00003,9052,1997-10-01,2020-11-17,8449,23,40,2803935,"c(-122.0438508, 37.70493008)"
USGS,11181006,CASTRO VALLEY C A KNOX ST AT CASTRO VAL CA,ST,37.68215326,-122.079963,S,NAD83, 130, 10,NGVD29,18050004,dv,00060,00003,9068,1978-10-01,1993-10-06,2036,15,13,2803979,"c(-122.079963, 37.68215326)"
USGS,11181008,CASTRO VALLEY C A HAYWARD CA,ST,37.6799311,-122.0805186,F,NAD83,NA,NA,NA,18050004,dv,00060,00003,9069,1971-10-01,2020-11-17,17487,49,40,2803985,"c(-122.0805186, 37.6799311)"
USGS,11181040,SAN LORENZO C A SAN LORENZO CA,ST,37.6840977,-122.1399649,F,NAD83, 6.13,.01,NGVD29,18050004,dv,00060,00003,9070,1967-10-01,2020-11-17,15545,53,40,2804929,"c(-122.1399649, 37.6840977)"
USGS,11181330,TEMESCAL C AB LK TEMESCAL A OAKLAND CA,ST,37.8438154,-122.2274681,F,NAD83,NA,NA,NA,18050002,dv,00060,00003,9076,1979-10-01,1993-10-03,2317,14,13,2805121,"c(-122.2274681, 37.8438154)"
USGS,11182030,RHEEM C A SAN PABLO CA,ST,37.9771453,-122.35386,F,NAD83, 13.63,.01,NGVD29,18050002,dv,00060,00003,9095,1960-12-01,1990-09-30,10896,30,10,1671927,"c(-122.35386, 37.9771453)"
USGS,11182800,SAN RAMON C NR WALNUT CREEK CA,ST,37.8771471,-122.0488513,F,NAD83,NA,NA,NA,18050001,dv,00060,00003,9099,1973-10-01,1992-09-30,6940,19,12,948050140,"c(-122.0488513, 37.8771471)"
USGS,11183600,WALNUT C A CONCORD CA,ST,37.9452008,-122.0496848,F,NAD83, 35.44,.01,NGVD29,18050001,dv,00060,00003,9102,1968-10-01,1992-09-30,8766,24,12,2789571,"c(-122.0496848, 37.9452008)"
USGS,11185500,KERN R NO 3 CN NR KERNVILLE CA,ST,35.90550439,-118.467586,F,NAD83,NA,NA,NA,18030001,dv,00060,00003,213495,1921-04-01,2019-09-30,28308,98,39,14971773,"c(-118.467586, 35.90550439)"
USGS,11186000,KERN R NR KERNVILLE (RIVER ONLY) CA,ST,35.94522615,-118.4775862,F,NAD83, 3620.00, 20,NGVD29,18030001,dv,00060,00003,213497,1960-10-01,2019-09-30,21549,59,39,14971711,"c(-118.4775862, 35.94522615)"
USGS,11186001,COMBINED FLOW OF KERN R AND KERN R NO 3 CA,ST,35.94522615,-118.4775862,F,NAD83,NA,NA,NA,18030001,dv,00060,00003,213499,1911-10-01,2019-09-30,39447,108,39,14971711,"c(-118.4775862, 35.94522615)"
USGS,11187000,KERN R A KERNVILLE CA,ST,35.7543954,-118.4234182,F,NAD83, 2621.57,.01,NGVD29,18030001,dv,00060,00003,9127,1905-01-01,1993-10-13,17545,88,13,14972877,"c(-118.4234182, 35.7543954)"
USGS,11187500,BOREL CN BL ISABELLA DAM CA,ST,35.6421749,-118.4700856,F,NAD83,NA,NA,NA,18030003,dv,00060,00003,213505,1910-01-01,2019-09-30,36067,109,39,14940680,"c(-118.4700856, 35.6421749)"
USGS,11189500,SF KERN R NR ONYX CA,ST,35.7374516,-118.173689,F,NAD83, 2900.00, 20,NGVD29,18030002,dv,00060,00003,9133,1911-09-12,2020-11-17,34364,109,40,14961121,"c(-118.173689, 35.7374516)"
USGS,11191000,KERN R BL ISABELLA DAM CA,ST,35.6391193,-118.4848082,F,NAD83, 2435.07,.01,NGVD29,18030003,dv,00060,00003,9139,1945-10-01,1993-04-30,16539,48,13,14940676,"c(-118.4848082, 35.6391193)"
USGS,11192000,KERN R NO 1 CONDUIT NR DEMOCRAT SPRINGS CA,ST,35.49717785,-118.692589,F,NAD83,NA,NA,NA,18030003,dv,00060,00003,213509,1975-10-01,2019-09-30,16071,44,39,14943860,"c(-118.692589, 35.49717785)"
USGS,11192500,KERN R NR DEMOCRAT SPRINGS(RIVER ONLY) CA,ST,35.52078857,-118.6770332,F,NAD83, 1837.70,.01,NGVD29,18030003,dv,00060,00003,213511,1950-07-26,2019-09-30,22712,69,39,14940950,"c(-118.6770332, 35.52078857)"
USGS,11192501,KERN R NR DEMOCRAT SPRINGS (TOTAL FLOW) CA,ST,35.52078857,-118.6770332,F,NAD83,NA,NA,NA,18030003,dv,00060,00003,213514,1950-10-01,2019-09-30,25202,69,39,14940950,"c(-118.6770332, 35.52078857)"
USGS,11192940,KERN CYN PH NR BAKERSFIELD CA,ST,35.439957,-118.7959262,F,NAD83,NA,NA,NA,18030003,dv,00060,00003,213524,1980-10-01,2019-09-30,11657,39,39,14946890,"c(-118.7959262, 35.439957)"
USGS,11192950,KERN R BL KERN CYN PH DIV DAM NR BAKERSFIELD CA,ST,35.46023439,-118.7795364,S,NAD83, 975, 10,NGVD29,18030003,dv,00060,00003,213525,1987-10-01,2019-09-30,11307,32,39,14946890,"c(-118.7795364, 35.46023439)"
USGS,11193010,RIO BRAVO PP NR BAKERSFIELD CA,ST,35.430235,-118.822594,F,NAD83,NA,NA,NA,18030003,dv,00060,00003,213526,1989-10-01,2019-09-30,9492,30,39,17173722,"c(-118.822594, 35.430235)"
USGS,11193020,KERN R A RIO BRAVO PP DIV DAM NR BKRSFLD CA,ST,35.430235,-118.822594,F,NAD83,NA,NA,NA,18030003,dv,00060,00003,213527,1989-10-01,2018-09-30,8655,29,38,17173722,"c(-118.822594, 35.430235)"
USGS,11193030,KERN R FW RL A RIO BRAVO PP DIV DAM NR BAKRSFLD CA,ST,35.430235,-118.822594,F,NAD83,NA,NA,NA,18030003,dv,00060,00003,234816,1989-10-01,2017-09-30,8379,28,37,17173722,"c(-118.822594, 35.430235)"
USGS,11193031,COMBINED FLOW OF 11193020 + 11193030 + 11193032 CA,ST,35.430235,-118.822594,F,NAD83,NA,NA,NA,18030003,dv,00060,00003,213532,1989-10-01,2017-09-30,9099,28,37,17173722,"c(-118.822594, 35.430235)"
USGS,11193032,KERN R A RIO BRAVO PP BYPASS FLOW IN DAM NR BKSFLD,ST,35.430235,-118.822594,S,NAD83, 678.17,.01,NGVD29,18030003,dv,00060,00003,213537,1998-10-01,2018-09-30,5113,20,38,17173722,"c(-118.822594, 35.430235)"
USGS,11200800,DEER C NR FOUNTAIN SPRINGS CA,ST,35.94161745,-118.8228702,F,NAD83, 980, 20,NGVD29,18030005,dv,00060,00003,9168,1968-09-01,2020-11-17,19071,52,40,14934716,"c(-118.8228702, 35.94161745)"
USGS,11201450,PGE TULE R CONDUIT BL TULE R DD NR SPRINGVILLE CA,ST,36.19216797,-118.6575909,S,NAD83, 4040, 20,NGVD29,18030006,dv,00060,00003,213539,1994-10-01,2019-09-30,9131,25,39,14930941,"c(-118.6575909, 36.19216797)"
USGS,11201456,NF OF MF TULE R BL DIV DAM NR SPRINGVILLE CA,ST,36.19244575,-118.6578687,S,NAD83, 4000, 20,NGVD29,18030006,dv,00060,00003,213538,1994-10-01,2019-09-30,8223,25,39,14930941,"c(-118.6578687, 36.19244575)"
USGS,11201700,PGE TULE R PH NR SPRINGVILLE CA,ST,36.16328019,-118.706758,F,NAD83,NA,NA,NA,18030006,dv,00060,00003,213540,1985-10-01,2019-09-30,12418,34,39,14930951,"c(-118.706758, 36.16328019)"
USGS,11201800,NF OF MF TULE R BL HOSSACK C NR SPRINGVILLE CA,ST,36.18939034,-118.6645355,S,NAD83, 3840, 20,NGVD29,18030006,dv,00060,00003,9174,1908-10-01,1995-09-04,1573,87,15,14930291,"c(-118.6645355, 36.18939034)"
USGS,11201850,NF OF MF TULE R BL DOYLE SP DIV NR SPRINGVILLE,ST,36.18855707,-118.6678689,S,NAD83, 3740, 20,NGVD29,18030006,dv,00060,00003,234817,1994-11-03,2016-01-17,546,22,36,14930291,"c(-118.6678689, 36.18855707)"
USGS,11202000,NF OF MF TULE R NR SPRINGVILLE (RIVER ONLY) CA,ST,36.17466878,-118.6956469,F,NAD83,NA,NA,NA,18030006,dv,00060,00003,213542,1939-12-01,2019-09-30,26967,80,39,14930339,"c(-118.6956469, 36.17466878)"
USGS,11202001,NF OF MF TULE R NR SPRINGVILLE (TOTAL FLOW) CA,ST,36.17466878,-118.6956469,F,NAD83,NA,NA,NA,18030006,dv,00060,00003,213543,1939-10-01,2019-09-30,29220,80,39,14930339,"c(-118.6956469, 36.17466878)"
USGS,11202700,SCE TULE R CONDUIT NR SPRINGVILLE CA,ST,36.16161358,-118.709258,F,NAD83,NA,NA,NA,18030006,dv,00060,00003,9178,1975-10-01,2002-09-29,9861,27,22,14930953,"c(-118.709258, 36.16161358)"
USGS,11202710,MF TULE R BL INTAKE AB SPRINGVILLE CA,ST,36.1613358,-118.7095358,F,NAD83,NA,NA,NA,18030006,dv,00060,00003,213546,1988-10-01,2019-09-30,10957,31,39,14930953,"c(-118.7095358, 36.1613358)"
USGS,11202711,MF TULE R BL IT AB SV+SCE CO TULE R CD COMBINED CA,ST,36.161058,-118.7078691,F,NAD83,NA,NA,NA,18030006,dv,00060,00003,9180,1988-10-01,2002-09-29,4746,14,22,14930351,"c(-118.7078691, 36.161058)"
USGS,11202750,MF TULE R AB SPRINGVILLE CA,ST,36.14994758,-118.749814,F,NAD83,NA,NA,NA,18030006,dv,00060,00003,9181,1986-10-01,1999-09-29,1094,13,19,14930955,"c(-118.749814, 36.14994758)"
USGS,11202838,SCE TULE R CONDUIT A PP NR SPRINGVILLE CA,ST,36.13527778,-118.788611,S,NAD83, 1240, 20,NGVD29,18030006,dv,00060,00003,213547,2002-10-01,2019-09-30,6209,17,39,14930957,"c(-118.788611, 36.13527778)"
USGS,11203220,TULE R A HWY 190 NR SPRINGVILLE CA,ST,36.10050536,-118.86954,F,NAD83,NA,NA,NA,18030006,dv,00060,00003,9188,1968-03-21,1991-09-30,8481,23,11,14930547,"c(-118.86954, 36.10050536)"
USGS,11204500,SF TULE R NR SUCCESS CA,ST,36.04245027,-118.8575946,F,NAD83, 770.00, 20,NGVD29,18030006,dv,00060,00003,9212,1930-07-01,1990-09-30,21580,60,10,14930723,"c(-118.8575946, 36.04245027)"
USGS,11204900,TULE R BL SUCCESS DAM CA,ST,36.05633997,-118.9237086,F,NAD83, 536.00, 10,NGVD29,18030006,dv,00060,00003,9217,1960-10-01,1990-09-30,10957,30,10,17159708,"c(-118.9237086, 36.05633997)"
USGS,11206000,MF KAWEAH R NO 3 CONDUIT NR POTWISHA CAMP CA,ST,36.51133438,-118.7975983,F,NAD83,NA,NA,NA,18030007,dv,00060,00003,9219,1975-10-01,2002-09-29,9861,27,22,948030127,"c(-118.7975983, 36.51133438)"
USGS,11206500,MF KAWEAH R NR POTWISHA CAMP(RIVER ONLY) CA,ST,36.51300095,-118.7917648,F,NAD83, 2190, 20,NGVD29,18030007,dv,00060,00003,213548,1949-07-12,2019-09-28,21691,70,39,948030127,"c(-118.7917648, 36.51300095)"
USGS,11206501,MF KAWEAH R NR POTWISHA CAMP(TOTAL FLOW) CA,ST,36.5132787,-118.7917648,F,NAD83,NA,NA,NA,18030007,dv,00060,00003,9224,1949-07-01,2002-09-29,19449,53,22,948030127,"c(-118.7917648, 36.5132787)"
USGS,11207500,MARBLE F KAWEAH R NO 3 CONDUIT A POTWISHA CA,ST,36.51938994,-118.8009319,F,NAD83,NA,NA,NA,18030007,dv,00060,00003,9230,1975-10-01,2002-09-29,9861,27,22,14918005,"c(-118.8009319, 36.51938994)"
USGS,11208001,MARBLE F KAWEAH R (TOTAL FLOW) A POTWISHA CAMP CA,ST,36.5188344,-118.8017652,F,NAD83,NA,NA,NA,18030007,dv,00060,00003,9236,1950-10-01,2002-09-29,18992,52,22,14918005,"c(-118.8017652, 36.5188344)"
USGS,11208565,MF KAWEAH R CONDUIT NO 3 A PP NR HAMMOND CA,ST,36.4861111,-118.8355556,S,NAD83, 1400, 20,NGVD29,18030007,dv,00060,00003,213550,2002-10-01,2019-09-30,6209,17,39,14922135,"c(-118.8355556, 36.4861111)"
USGS,11208600,KAWEAH R BL CONDUIT NO. 2 NR HAMMOND CA,ST,36.48439065,-118.8359322,S,NAD83, 1380, 20,NGVD29,18030007,dv,00060,00003,213551,1993-10-01,2019-09-30,9496,26,39,14922147,"c(-118.8359322, 36.48439065)"
USGS,11208720,EF KAWEAH R CONDUIT 1 NR THREE RIVERS CA,ST,36.45133464,-118.7895417,S,NAD83, 2600, 20,NGVD29,18030007,dv,00060,00003,9251,1974-10-01,2002-09-29,4746,28,22,14922311,"c(-118.7895417, 36.45133464)"
USGS,11208730,EF KAWEAH R NR THREE RIVERS CA,ST,36.4513346,-118.7884306,S,NAD83, 2700, 20,NGVD29,18030007,dv,00060,00003,213559,1952-06-01,2019-09-30,18383,67,39,14922311,"c(-118.7884306, 36.4513346)"
USGS,11208731,COMBINED FLOW EF KAWEAH R NR THREE RIVERS CA,ST,36.4513346,-118.7884306,S,NAD83, 2700, 20,NGVD29,18030007,dv,00060,00003,9255,1952-06-01,2002-09-29,12171,50,22,14922311,"c(-118.7884306, 36.4513346)"
USGS,11208800,EF KAWEAH R CONDUIT 1 A PP NR HAMMOND CA,ST,36.46522449,-118.862877,S,NAD83, 1100, 20,NGVD29,18030007,dv,00060,00003,213561,2002-10-01,2019-09-30,6209,17,39,14922197,"c(-118.862877, 36.46522449)"
USGS,11208818,KAWEAH R CONDUIT NO 2 A PP NR HAMMOND CA,ST,36.46166667,-118.8794444,S,NAD83, 1010, 20,NGVD29,18030007,dv,00060,00003,213562,2002-10-01,2019-09-30,6209,17,39,14922227,"c(-118.8794444, 36.46166667)"
USGS,11210100,SF KAWEAH R A THREE RIVERS CA,ST,36.4166144,-118.9142668,F,NAD83, 807.22,.01,NGVD29,18030007,dv,00060,00003,9266,1958-10-01,1990-09-30,11688,32,10,14922415,"c(-118.9142668, 36.4166144)"
USGS,11210950,KAWEAH R BL TERMINUS DAM CA,ST,36.4141157,-119.0126028,F,NAD83,NA,NA,NA,18030007,dv,00060,00003,9273,1961-10-01,1990-09-30,10592,29,10,17192788,"c(-119.0126028, 36.4141157)"
USGS,11211300,DRY C NR LEMONCOVE CA,ST,36.44744896,-119.0281594,F,NAD83,NA,NA,NA,18030007,dv,00060,00003,9274,1959-10-01,1994-09-30,12784,35,14,17152974,"c(-119.0281594, 36.44744896)"
USGS,11214540,HELMS PP NR WISHON RE CA,ST,37.03938878,-118.9553892,F,NAD83,NA,NA,NA,18030010,dv,00060,00003,213563,1989-10-01,2019-09-30,10957,30,39,22049617,"c(-118.9553892, 37.03938878)"
USGS,11214600,HELMS C BL COURTRIGHT DAM CA,ST,37.07633329,-118.9687234,F,NAD83,NA,NA,NA,18030010,dv,00060,00003,213603,1958-10-01,2019-09-30,22168,61,39,22048993,"c(-118.9687234, 37.07633329)"
USGS,11214900,NF KINGS R BL WISHON RES CA,ST,37.00133394,-118.9731668,F,NAD83,NA,NA,NA,18030010,dv,00060,00003,213606,1986-10-01,2019-04-22,7030,33,39,22049247,"c(-118.9731668, 37.00133394)"
USGS,11215000,NF KINGS R NR CLIFF CAMP CA,ST,36.99383417,-118.9812225,F,NAD83, 6143.95,.01,NGVD29,18030010,dv,00060,00003,213607,1921-10-01,2019-09-30,32024,98,39,22057895,"c(-118.9812225, 36.99383417)"
USGS,11216050,HAAS PH NR BALCH CAMP CA,ST,36.92772397,-119.017612,F,NAD83,NA,NA,NA,18030010,dv,00060,00003,213609,1980-10-01,2019-09-30,12783,39,39,22050443,"c(-119.017612, 36.92772397)"
USGS,11216200,NF KINGS R BL BALCH DIV DAM CA,ST,36.90272435,-119.0509463,F,NAD83,NA,NA,NA,18030010,dv,00060,00003,213612,1983-10-01,2019-09-30,12785,36,39,22050473,"c(-119.0509463, 36.90272435)"
USGS,11216300,BALCH PH NR FRESNO (NO1 & NO2 COMBINED) CA,ST,36.90994684,-119.0876145,F,NAD83,NA,NA,NA,18030010,dv,00060,00003,213621,1980-10-01,2019-09-30,12782,39,39,22057159,"c(-119.0876145, 36.90994684)"
USGS,11216400,DINKEY C SIPHON FISH RELEASE A BALCH CAMP CA,ST,36.9080027,-119.1251159,F,NAD83,NA,NA,NA,18030010,dv,00060,00003,213622,1986-10-01,2019-09-30,12031,33,39,22050467,"c(-119.1251159, 36.9080027)"
USGS,11216500,NF KINGS R AB DINKEY C A BALCH CAMP CA,ST,36.90328046,-119.1215046,F,NAD83,NA,NA,NA,18030010,dv,00060,00003,213623,1919-10-01,2019-09-30,25750,100,39,22050465,"c(-119.1215046, 36.90328046)"
USGS,11218400,NF KINGS R BL DINKEY C NR BALCH CAMP CA,ST,36.87966948,-119.1287268,F,NAD83,NA,NA,NA,18030010,dv,00060,00003,213627,1960-04-01,2019-09-30,21732,59,39,22057161,"c(-119.1287268, 36.87966948)"
USGS,11218501,COMBINED FLOW KINGS R BL N F & KINGS R PP CA,ST,36.87466959,-119.1417828,F,NAD83,NA,NA,NA,18030010,dv,00060,00003,9318,1952-01-01,1993-09-29,15248,41,13,22050527,"c(-119.1417828, 36.87466959)"
USGS,11218700,KINGS R PH NR BALCH CAMP CA,ST,36.88828079,-119.1584503,F,NAD83,NA,NA,NA,18030010,dv,00060,00003,213628,1969-10-01,2019-09-30,16439,50,39,22057253,"c(-119.1584503, 36.88828079)"
USGS,11221500,KINGS R BL PINE FLAT DAM CA,ST,36.8305045,-119.3362347,F,NAD83, 556.97,.01,NGVD29,18030012,dv,00060,00003,9326,1954-01-01,1990-10-04,13426,36,10,17149774,"c(-119.3362347, 36.8305045)"
USGS,11221700,MILL C NR PIEDRA CA,ST,36.81856014,-119.3417904,F,NAD83, 550, 10,NGVD29,18030012,dv,00060,00003,9327,1957-10-01,1994-09-30,13514,37,14,14907219,"c(-119.3417904, 36.81856014)"
USGS,11224000,MF SAN JOAQUIN R NR MAMMOTH LAKES CA,ST,37.63194444,-119.0863889,U,NAD83, 7580, 33,NGVD29,18040006,dv,00060,00003,9329,2009-10-27,2020-11-17,3866,11,40,17112805,"c(-119.0863889, 37.63194444)"
USGS,11229500,WARD TUNNEL A INTAKE A FLORENCE LAKE CA,ST,37.2721651,-118.9723379,F,NAD83, 7213.89, 20,NGVD29,18040006,dv,00060,00003,213629,1925-05-01,2019-09-30,34395,94,39,17119593,"c(-118.9723379, 37.2721651)"
USGS,11230070,SF SAN JOAQUIN R AB HOOPER C NR FLORENCE LAKE CA,ST,37.291331,-118.9573386,5,NAD83, 7210, 20,NGVD29,18040006,dv,00060,00003,213632,2009-10-01,2019-09-30,3652,10,39,17119107,"c(-118.9573386, 37.291331)"
USGS,11230200,HOOPER C BL DIV DAM NR FLORENCE LAKE CA,ST,37.305775,-118.9506724,F,NAD83, 7440, 20,NGVD29,18040006,dv,00060,00003,213633,1986-10-01,2019-09-30,12053,33,39,17118415,"c(-118.9506724, 37.305775)"
USGS,11230215,SF SAN JOAQUIN R BL HOOPER C NR FLORENCE LAKE CA,ST,37.3096642,-118.9620614,F,NAD83, 6949.41,.05,NGVD29,18040006,dv,00060,00003,238142,1975-10-01,2019-09-30,15591,44,39,948040328,"c(-118.9620614, 37.3096642)"
USGS,11230520,BEAR C CONDUIT NR LAKE THOMAS A EDISON CA,ST,37.3360531,-118.9753956,F,NAD83, 7340,.05,NGVD29,18040006,dv,00060,00003,213637,1986-10-01,2019-09-30,11991,33,39,17118355,"c(-118.9753956, 37.3360531)"
USGS,11230530,BEAR C BELOW DIV DAM NR LAKE THOMAS A EDISON CA,ST,37.33549758,-118.9756734,F,NAD83, 7338.30,.05,NGVD29,18040006,dv,00060,00003,213639,1986-10-01,2019-09-30,11991,33,39,17118355,"c(-118.9756734, 37.33549758)"
USGS,11230560,CHINQUAPIN C BL DIV DAM NR BIG C CA,ST,37.3071656,-119.0198395,F,NAD83, 7260, 20,NGVD29,18040006,dv,00060,00003,213650,1987-04-17,2003-07-08,826,16,23,17116157,"c(-119.0198395, 37.3071656)"
USGS,11230600,CAMP 62 C BL DIV DAM NR BIG C CA,ST,37.30883228,-119.0278953,F,NAD83, 7320, 20,NGVD29,18040006,dv,00060,00003,213653,1987-04-16,2008-07-08,1181,21,28,17116157,"c(-119.0278953, 37.30883228)"
USGS,11230650,BOLSILLO C AB DIV DAM NR BIG CREEK CA,ST,37.3099434,-119.0392846,S,NAD83,NA,NA,NA,18040006,dv,00060,00003,9349,1985-10-01,1995-09-29,728,10,15,17116147,"c(-119.0392846, 37.3099434)"
USGS,11230670,BOLSILLO C BL DIV DAM NR BIG CREEK CA,ST,37.31188785,-119.0406735,F,NAD83, 7600, 20,NGVD29,18040006,dv,00060,00003,213654,1985-10-01,2005-07-21,1752,20,25,17116147,"c(-119.0406735, 37.31188785)"
USGS,11231500,MONO C BL LK THOMAS A EDISON CA,ST,37.361331,-118.992063,F,NAD83, 7380, 20,NGVD29,18040006,dv,00060,00003,213657,1921-10-01,2019-09-30,35794,98,39,17119099,"c(-118.992063, 37.361331)"
USGS,11231550,MONO C CONDUIT NR MONO HOT SPRINGS CA,ST,37.35994237,-118.9984518,F,NAD83, 7336.36,.05,NGVD29,18040006,dv,00060,00003,213666,1970-10-01,2019-09-30,12783,49,39,17119099,"c(-118.9984518, 37.35994237)"
USGS,11231551,MONO BEAR CONDUIT NR MONO HOT SPRINGS CA,ST,37.31305556,-119.0241667,S,NAD83, 7040, 20,NGVD29,18040006,dv,00060,00003,213667,2009-10-01,2019-09-30,3652,10,39,17116157,"c(-119.0241667, 37.31305556)"
USGS,11231600,MONO C BL DIV DAM NR MONO HOT SPRINGS CA,ST,37.35994237,-118.9984518,F,NAD83, 7330, 20,NGVD29,18040006,dv,00060,00003,213669,1970-10-01,2019-09-30,13576,49,39,17119099,"c(-118.9984518, 37.35994237)"
USGS,11231700,WARM C BL DIV DAM NR LK THOMAS A EDISON CA,ST,37.39188657,-119.0284533,F,NAD83, 8030, 20,NGVD29,18040006,dv,00060,00003,213671,1986-10-01,2016-09-30,2234,30,36,17115015,"c(-119.0284533, 37.39188657)"
USGS,11234750,MAMMOTH POOL FISHWATER TURBINE NR BIG CREEK CA,ST,37.32216656,-119.3248501,F,NAD83, 2948.91,.01,NGVD29,18040006,dv,00060,00003,213729,1977-10-01,2019-09-30,10430,42,39,17115185,"c(-119.3248501, 37.32216656)"
USGS,11234760,SAN JOAQUIN R AB SHAKEFLAT C NR BIG CREEK CA,ST,37.3166111,-119.3295725,F,NAD83, 2865.50, 20,NGVD29,18040006,dv,00060,00003,213748,1959-10-01,2019-09-30,21915,60,39,17115185,"c(-119.3295725, 37.3166111)"
USGS,11235100,MAMMOTH POOL PP NR BIG CREEK CA,ST,37.22494599,-119.3379052,F,NAD83, 2230, 20,NGVD29,18040006,dv,00060,00003,213732,1980-10-01,2019-09-30,13514,39,39,17115461,"c(-119.3379052, 37.22494599)"
USGS,11235500,PORTAL POWERPLANT AT HUNTINGTON LAKE CA,ST,37.25688909,-119.1592869,F,NAD83, 6999.00,.05,NGVD29,18040006,dv,00060,00003,213733,1927-10-01,2019-09-30,33603,92,39,17116171,"c(-119.1592869, 37.25688909)"
USGS,11237000,BIG C BL HUNTINGTON LK CA,ST,37.2213341,-119.2126217,F,NAD83, 6630, 20,NGVD29,18040006,dv,00060,00003,213736,1925-06-09,2019-09-30,28603,94,39,948040323,"c(-119.2126217, 37.2213341)"
USGS,11237600,PITMAN C SHAFT BL TAMARACK C NR BIG CREEK CA,ST,37.1982788,-119.2142883,F,NAD83, 7010, 32,NGVD29,18040006,dv,00060,00003,213739,1986-10-01,2019-09-30,11758,33,39,17116209,"c(-119.2142883, 37.1982788)"
USGS,11237700,PITMAN C NR TAMARACK MOUNTAIN CA,ST,37.19911215,-119.2151217,F,NAD83, 7000, 20,NGVD29,18040006,dv,00060,00003,213740,1986-10-01,2019-09-30,11759,33,39,17116209,"c(-119.2151217, 37.19911215)"
USGS,11238100,BIG C PH NO 1 AT BIG CREEK CA,ST,37.2041122,-119.2398448,F,NAD83, 4820, 20,NGVD29,18040006,dv,00060,00003,213741,1980-10-01,2019-09-30,13149,39,39,17116561,"c(-119.2398448, 37.2041122)"
USGS,11238250,EASTWOOD PP AB SHAVER LK NR BIG CREEK CA,ST,37.13189099,-119.2617899,F,NAD83,NA,NA,NA,18040006,dv,00060,00003,213742,1987-10-01,2019-09-30,11688,32,39,17115751,"c(-119.2617899, 37.13189099)"
USGS,11238270,MF BALSAM C BL BALSAM MDW FOREBAY NR BIG CREEK CA,ST,37.16272389,-119.2542896,F,NAD83, 6560, 20,NGVD29,18040006,dv,00060,00003,213743,1989-01-24,2019-09-30,11206,30,39,17116227,"c(-119.2542896, 37.16272389)"
USGS,11238380,BIG C PH NO 2 NR BIG CREEK CA,ST,37.19883496,-119.3065146,F,NAD83, 2950, 20,NGVD29,18040006,dv,00060,00003,213745,1980-10-01,2019-09-30,13149,39,39,17116205,"c(-119.3065146, 37.19883496)"
USGS,11238400,BIG C PH NO 2A NR BIG CREEK CA,ST,37.1991127,-119.3054034,F,NAD83, 2950, 20,NGVD29,18040006,dv,00060,00003,213746,1980-10-01,2019-09-30,13513,39,39,17116205,"c(-119.3054034, 37.1991127)"
USGS,11238500,BIG C NR MOUTH NR BIG CREEK CA,ST,37.20772385,-119.3212376,F,NAD83, 2620, 20,NGVD29,18040006,dv,00060,00003,213747,1923-05-10,2019-09-30,14024,96,39,17116205,"c(-119.3212376, 37.20772385)"
USGS,11238550,BIG C PH NO 8 NR BIG CREEK CA,ST,37.2096683,-119.328738,F,NAD83, 2250, 20,NGVD29,18040006,dv,00060,00003,213762,1980-10-01,2019-09-30,13514,39,39,17116201,"c(-119.328738, 37.2096683)"
USGS,11238600,SAN JOAQUIN R AB STEVENSON C NR BIG CREEK CA,ST,37.2077239,-119.329849,F,NAD83, 2200, 20,NGVD29,18040006,dv,00060,00003,213764,1973-10-01,2019-09-30,14609,46,39,17116559,"c(-119.329849, 37.2077239)"
USGS,11239300,NF STEVENSON C A PERIMETER RD NR BIG C CA,ST,37.13689087,-119.2545673,F,NAD83, 5740, 20,NGVD29,18040006,dv,00060,00003,213774,1989-01-25,2019-09-30,11206,30,39,17116249,"c(-119.2545673, 37.13689087)"
USGS,11241500,STEVENSON C A SHAVER LK CA,ST,37.14466898,-119.3084588,F,NAD83, 5200, 20,NGVD29,18040006,dv,00060,00003,213768,1916-10-01,2019-09-30,15790,103,39,17115711,"c(-119.3084588, 37.14466898)"
USGS,11241800,BIG C PH NO 3 NR SHAVER LK CA,ST,37.1485584,-119.3865182,F,NAD83, 1410, 20,NGVD29,18040006,dv,00060,00003,213770,1980-10-01,2019-09-30,13514,39,39,17116239,"c(-119.3865182, 37.1485584)"
USGS,11242000,SAN JOAQUIN R AB WILLOW C NR AUBERRY CA,ST,37.14439236,-119.454577,F,NAD83, 1175.54,.01,NGVD29,18040006,dv,00060,00003,213772,1951-03-07,2019-09-30,25045,68,39,17115703,"c(-119.454577, 37.14439236)"
USGS,11242400,NF WILLOW C NR SUGAR PINE CA,ST,37.3977195,-119.5662563,F,NAD83,NA,NA,NA,18040006,dv,00060,00003,9393,1965-09-01,2009-10-12,15748,44,29,17115031,"c(-119.5662563, 37.3977195)"
USGS,11243300,BROWNS C CN AT BASS LAKE CA,ST,37.2874456,-119.5195827,F,NAD83,NA,NA,NA,18040006,dv,00060,00003,213159,1986-10-01,2019-09-30,11322,33,39,17116151,"c(-119.5195827, 37.2874456)"
USGS,11243405,SF WILLOW C NR BASS LAKE CA,ST,37.29388889,-119.5002778,S,NAD83, 3440, 20,NGVD29,18040006,dv,00060,00003,232809,2009-10-01,2019-09-30,2286,10,39,17116159,"c(-119.5002778, 37.29388889)"
USGS,11243500,PGE NO 3 CONDUIT NR BASS LAKE CA,ST,37.2891122,-119.5298613,F,NAD83,NA,NA,NA,18040006,dv,00060,00003,213163,1940-10-01,2019-09-30,28854,79,39,17115319,"c(-119.5298613, 37.2891122)"
USGS,11244000,NF WILLOW C NR BASS LAKE CA,ST,37.28883445,-119.530139,F,NAD83,NA,NA,NA,18040006,dv,00060,00003,213247,1940-10-01,2019-09-30,28854,79,39,17115319,"c(-119.530139, 37.28883445)"
USGS,11244050,NF WILLOW C BL MANZANITA LK DAM NR NORTH FORK CA,ST,37.24416667,-119.516111,S,NAD83, 2810, 20,NGVD29,18040006,dv,00060,00003,213165,2009-10-01,2019-09-09,1755,10,39,17116195,"c(-119.516111, 37.24416667)"
USGS,11244100,SAN JOAQUIN PH NO3 NR NORTH FORK CA,ST,37.2549467,-119.5193039,F,NAD83,NA,NA,NA,18040006,dv,00060,00003,213167,1980-10-01,2019-09-30,13878,39,39,17115319,"c(-119.5193039, 37.2549467)"
USGS,11245300,WILLOW C NR NORTH FORK CA,ST,37.19166667,-119.4930556,S,NAD83, 2280, 20,NGVD29,18040006,dv,00060,00003,213174,2009-10-01,2019-07-07,1972,10,39,17115637,"c(-119.4930556, 37.19166667)"
USGS,11246500,WILLOW C A MOUTH NR AUBERRY CA,ST,37.1507812,-119.4604107,F,NAD83, 1174.69,.01,NGVD29,18040006,dv,00060,00003,213773,1952-01-01,2019-09-30,24745,67,39,17116241,"c(-119.4604107, 37.1507812)"
USGS,11246530,BIG C PH NO 4 NR AUBERRY CA,ST,37.13883716,-119.4898565,F,NAD83, 990, 20,NGVD29,18040006,dv,00060,00003,213775,1980-10-01,2019-09-30,13513,39,39,17116565,"c(-119.4898565, 37.13883716)"
USGS,11246570,SAN JOAQUIN PH NO2 NR NORTH FORK CA,ST,37.20161417,-119.4976352,F,NAD83,NA,NA,NA,18040006,dv,00060,00003,213186,1980-10-01,2018-09-30,13513,38,38,17116229,"c(-119.4976352, 37.20161417)"
USGS,11246590,SAN JOAQUIN PH NO1A NR AUBERRY CA,ST,37.15828085,-119.4273536,F,NAD83,NA,NA,NA,18040006,dv,00060,00003,213187,1980-10-01,2019-09-30,13878,39,39,17116403,"c(-119.4273536, 37.15828085)"
USGS,11246610,SAN JOAQUIN PH NO1 NR AUBERRY (WISHON PH) CA,ST,37.15328149,-119.5059686,F,NAD83,NA,NA,NA,18040006,dv,00060,00003,213189,1980-10-01,2019-09-30,13878,39,39,17116391,"c(-119.5059686, 37.15328149)"
USGS,11246700,SAN JOAQUIN R NR AUBERRY CA,ST,37.1321706,-119.5315256,F,NAD83,NA,NA,NA,18040006,dv,00060,00003,213974,1986-10-01,2019-09-30,12053,33,39,17115743,"c(-119.5315256, 37.1321706)"
USGS,11246950,KERCKHOFF PH NR AUBERRY CA,ST,37.09328219,-119.5526376,F,NAD83,NA,NA,NA,18040006,dv,00060,00003,213977,1978-10-01,2019-09-30,13880,41,39,17116573,"c(-119.5526376, 37.09328219)"
USGS,11247050,KERCKHOFF PH NO 2 A MILLERTON LK NR AUBERRY CA,ST,37.0721713,-119.5579154,S,NAD83,NA,NA,NA,18040006,dv,00060,00003,214002,1983-10-01,2019-09-30,12418,36,39,17116441,"c(-119.5579154, 37.0721713)"
USGS,11249500,MADERA CN A FRIANT CA,ST,37.0027273,-119.7068118,F,NAD83,NA,NA,NA,18040006,dv,00060,00003,213985,1948-10-01,2019-09-30,25932,71,39,17116483,"c(-119.7068118, 37.0027273)"
USGS,11250000,FRIANT-KERN CN A FRIANT CA,ST,36.9980051,-119.7040338,F,NAD83,NA,NA,NA,18040001,dv,00060,00003,213986,1949-03-22,2019-09-30,25682,70,39,19792057,"c(-119.7040338, 36.9980051)"
USGS,11250110,SAN JOAQUIN R RELEASE A FRIANT DAM CA,ST,36.99916667,-119.706111,S,NAD83, 330, 10,NAVD88,18040001,dv,00060,00003,213991,2009-10-01,2019-09-30,3652,10,39,19792057,"c(-119.706111, 36.99916667)"
USGS,11253500,JAMES BYPASS (FRESNO SLOUGH) NR SAN JOAQUIN CA,ST,36.65244895,-120.1812687,F,NAD83,NA,NA,NA,18030009,dv,00060,00003,214005,1947-10-01,2009-09-30,14573,62,29,17136300,"c(-120.1812687, 36.65244895)"
USGS,11254000,SAN JOAQUIN R NR MENDOTA CA,ST,36.8105046,-120.3782256,S,NAD83, 140.53,.01,NGVD29,18040001,dv,00060,00003,9443,1939-10-01,2020-11-17,13131,81,40,19784319,"c(-120.3782256, 36.8105046)"
USGS,11255575,PANOCHE C A I-5 NR SILVER CREEK CA,ST,36.65245145,-120.6321186,S,NAD83, 450, 20,NGVD29,18040014,dv,00060,00003,9452,1997-12-01,2020-11-17,4951,23,40,19784451,"c(-120.6321186, 36.65245145)"
USGS,11258960,CHOWCHILLA R AB WILLOW C NR RAYMOND CA,ST,37.27300075,-119.881272,F,NAD83,NA,NA,NA,18040001,dv,00060,00003,9468,1980-08-16,1990-09-30,3698,10,10,17100053,"c(-119.881272, 37.27300075)"
USGS,11261100,SALT SLOUGH A HWY 165 NR STEVINSON CA,ST,37.24771864,-120.8521446,S,NAD83, 75.11,.01,NGVD29,18040001,dv,00060,00003,9493,1985-10-01,2020-11-17,12467,35,40,19777307,"c(-120.8521446, 37.24771864)"
USGS,11261500,SAN JOAQUIN R A FREMONT FORD BRIDGE CA,ST,37.3099386,-120.9310369,S,NAD83, 72.37,.10,NAVD88,18040001,dv,00060,00003,9500,1937-04-01,2020-11-17,20973,83,40,19771455,"c(-120.9310369, 37.3099386)"
USGS,11262900,MUD SLOUGH NR GUSTINE CA,ST,37.26244,-120.9065908,S,NAD83, 25, 10,NGVD29,18040001,dv,00060,00003,9523,1985-10-01,2020-11-17,12832,35,40,19771685,"c(-120.9065908, 37.26244)"
USGS,11267350,BIG C DIV NR FISH CAMP CA,ST,37.46938349,-119.6151512,F,NAD83,NA,NA,NA,18040008,dv,00060,00003,9540,1969-10-01,2012-10-01,12146,43,32,948040318,"c(-119.6151512, 37.46938349)"
USGS,11269700,EXCHEQUER PH A EXCHEQUER CA,ST,37.5835456,-120.2757438,F,NAD83,NA,NA,NA,18040008,dv,00060,00003,213196,1973-10-01,2019-09-30,15340,46,39,21607271,"c(-120.2757438, 37.5835456)"
USGS,11271290,MERCED R A SHAFFER BRIDGE NR CRESSEY CA,ST,37.45410365,-120.6088084,F,NAD83,NA,NA,NA,18040008,dv,00060,00003,213240,1965-10-01,2019-08-09,8607,54,39,2829148,"c(-120.6088084, 37.45410365)"
USGS,11271320,DRY C NR SNELLING CA,ST,37.55493506,-120.4632498,F,NAD83,NA,NA,NA,18040008,dv,00060,00003,9555,1966-10-01,1992-09-30,9497,26,12,2824270,"c(-120.4632498, 37.55493506)"
USGS,11272500,MERCED R NR STEVINSON CA,ST,37.37077046,-120.9304826,S,NAD83, 73,2.5,NGVD29,18040008,dv,00060,00003,9559,1940-10-01,2010-09-29,23008,70,30,2833552,"c(-120.9304826, 37.37077046)"
USGS,11273400,SAN JOAQUIN R AB MERCED R NR NEWMAN CA,ST,37.3472151,-120.9761777,F,NAD83, 60,2.5,NGVD29,18040001,dv,00060,00003,9563,2009-08-28,2020-11-17,3731,11,40,2829236,"c(-120.9761777, 37.3472151)"
USGS,11274000,SAN JOAQUIN R NR NEWMAN CA,ST,37.3504928,-120.97715,F,NAD83, 56,2.5,NGVD29,18040002,dv,00060,00003,9587,1912-05-01,2020-11-17,39648,108,40,2829226,"c(-120.97715, 37.3504928)"
USGS,11274538,ORESTIMBA CR AT RIVER RD NR CROWS LANDING CA,ST,37.41354657,-121.0160412,S,NAD83, 65,2.5,NGVD29,18040002,dv,00060,00003,9591,1992-04-15,2016-10-17,8952,24,36,2827158,"c(-121.0160412, 37.41354657)"
